{
"type": "FeatureCollection",
"crs": { "type": "name", "properties": { "name": "urn:ogc:def:crs:OGC:1.3:CRS84" } },
"features": [
{ "type": "Feature", "properties": { "main_type": "銀髮族服務", "sub_type": "長期照護型", "name": "臺北市政府社會局附設臺北市東明住宿長照機構(委託財團法人台北市私立愛愛院經營管理)", "address": "臺北市南港區東明里南港路二段60巷17號2樓" }, "geometry": { "type": "Point", "coordinates": [ 121.6045, 25.0547 ] } },
{ "type": "Feature", "properties": { "main_type": "銀髮族服務", "sub_type": "長期照護型", "name": "臺北市政府社會局附設臺北市廣智住宿長照機構(委託財團法人天主教失智老人社會福利基金會經營管理)", "address": "臺北市信義區大仁里福德街１" }, "geometry": { "type": "Point", "coordinates": [ 121.5813, 25.0372 ] } },
{ "type": "Feature", "properties": { "main_type": "銀髮族服務", "sub_type": "長期照護型", "name": "臺北市至善老人安養護中心", "address": "臺北市士林區永福里1鄰仰德大道二段2巷50號" }, "geometry": { "type": "Point", "coordinates": [ 121.543, 25.102 ] } },
{ "type": "Feature", "properties": { "main_type": "銀髮族服務", "sub_type": "長期照護型", "name": "臺北市私立華安老人長期照護中心", "address": "臺北市大安區光復南路116巷1、3、5號5樓及3號6樓" }, "geometry": { "type": "Point", "coordinates": [ 121.5565, 25.043 ] } },
{ "type": "Feature", "properties": { "main_type": "銀髮族服務", "sub_type": "長期照護型", "name": "財團法人臺北市私立恆安老人長期照顧中心(長期照護型)", "address": "臺北市萬華區水源路187號" }, "geometry": { "type": "Point", "coordinates": [ 121.5108, 25.0236 ] } },
{ "type": "Feature", "properties": { "main_type": "銀髮族服務", "sub_type": "長期照護型", "name": "臺北市兆如老人安養護中心", "address": "臺北市文山區政大二街129號" }, "geometry": { "type": "Point", "coordinates": [ 121.5842, 24.9893 ] } },
{ "type": "Feature", "properties": { "main_type": "銀髮族服務", "sub_type": "養護型", "name": "臺北市文山老人養護中心", "address": "臺北市文山區興隆路二段95巷8號3樓" }, "geometry": { "type": "Point", "coordinates": [ 121.5469, 25.0 ] } },
{ "type": "Feature", "properties": { "main_type": "銀髮族服務", "sub_type": "養護型", "name": "臺北市私立中山老人長期照顧中心(養護型)", "address": "臺北市萬華區峨眉街124、124之1號1樓" }, "geometry": { "type": "Point", "coordinates": [ 121.5024, 25.0445 ] } },
{ "type": "Feature", "properties": { "main_type": "銀髮族服務", "sub_type": "養護型", "name": "臺北市私立三園老人長期照顧中心(養護型)", "address": "臺北市文山區車前路12號3-4樓" }, "geometry": { "type": "Point", "coordinates": [ 121.5409, 24.9915 ] } },
{ "type": "Feature", "properties": { "main_type": "銀髮族服務", "sub_type": "養護型", "name": "臺北市私立心慈老人養護所", "address": "臺北市文山區辛亥路五段120-1號1~4樓" }, "geometry": { "type": "Point", "coordinates": [ 121.5523, 24.9976 ] } },
{ "type": "Feature", "properties": { "main_type": "銀髮族服務", "sub_type": "養護型", "name": "臺北市私立吉祥老人長期照顧中心(養護型)", "address": "臺北市文山區木柵路三段85巷8弄4-1、4-2號1樓及2、2-1、2-2、4、4-1、4-2號2樓" }, "geometry": { "type": "Point", "coordinates": [ 121.5668, 24.9897 ] } },
{ "type": "Feature", "properties": { "main_type": "銀髮族服務", "sub_type": "養護型", "name": "臺北市私立美安老人長期照顧中心(養護型)", "address": "臺北市文山區溪口街1巷5號" }, "geometry": { "type": "Point", "coordinates": [ 121.5408, 24.9948 ] } },
{ "type": "Feature", "properties": { "main_type": "銀髮族服務", "sub_type": "養護型", "name": "臺北市私立景安老人長期照顧中心(養護型)", "address": "臺北市文山區景仁里溪口街1巷5號1~2樓" }, "geometry": { "type": "Point", "coordinates": [ 121.5408, 24.9948 ] } },
{ "type": "Feature", "properties": { "main_type": "銀髮族服務", "sub_type": "養護型", "name": "臺北市私立景興老人長期照顧中心(養護型)", "address": "臺北市文山區景興路222號3樓" }, "geometry": { "type": "Point", "coordinates": [ 121.5433, 24.9911 ] } },
{ "type": "Feature", "properties": { "main_type": "銀髮族服務", "sub_type": "養護型", "name": "臺北市私立慈安老人長期照顧中心(養護型)", "address": "臺北市文山區興隆路一段2、4號1~4樓" }, "geometry": { "type": "Point", "coordinates": [ 121.5418, 25.0014 ] } },
{ "type": "Feature", "properties": { "main_type": "銀髮族服務", "sub_type": "養護型", "name": "臺北市私立萬芳老人長期照顧中心(養護型)", "address": "臺北市文山區萬和街8號3樓" }, "geometry": { "type": "Point", "coordinates": [ 121.5677, 25.002 ] } },
{ "type": "Feature", "properties": { "main_type": "銀髮族服務", "sub_type": "養護型", "name": "臺北市私立慧華老人長期照顧中心(養護型)", "address": "臺北市文山區興隆路二段154巷11號1樓" }, "geometry": { "type": "Point", "coordinates": [ 121.5517, 25.0009 ] } },
{ "type": "Feature", "properties": { "main_type": "銀髮族服務", "sub_type": "養護型", "name": "臺北市私立慧誠老人長期照顧中心(養護型)", "address": "臺北市文山區木柵路二段163、165號1~5樓" }, "geometry": { "type": "Point", "coordinates": [ 121.5605, 24.9886 ] } },
{ "type": "Feature", "properties": { "main_type": "銀髮族服務", "sub_type": "養護型", "name": "臺北市私立蓮馨老人長期照顧中心(養護型)", "address": "臺北市文山區萬和街6號8樓" }, "geometry": { "type": "Point", "coordinates": [ 121.5674, 25.0019 ] } },
{ "type": "Feature", "properties": { "main_type": "銀髮族服務", "sub_type": "養護型", "name": "臺北市私立精英國際老人長期照顧中心(養護型)", "address": "臺北市北投區關渡路60之1、62之1號1樓" }, "geometry": { "type": "Point", "coordinates": [ 121.4688, 25.1197 ] } },
{ "type": "Feature", "properties": { "main_type": "銀髮族服務", "sub_type": "養護型", "name": "臺北市私立北投老人長期照顧中心(養護型)", "address": "臺北市北投區公舘路231巷20號1樓" }, "geometry": { "type": "Point", "coordinates": [ 121.5092, 25.1267 ] } },
{ "type": "Feature", "properties": { "main_type": "銀髮族服務", "sub_type": "養護型", "name": "臺北市私立北投老人長期照顧中心(養護型)", "address": "臺北市北投區公舘路231巷20號1樓" }, "geometry": { "type": "Point", "coordinates": [ 121.5092, 25.1267 ] } },
{ "type": "Feature", "properties": { "main_type": "銀髮族服務", "sub_type": "養護型", "name": "臺北市私立全泰老人長期照顧中心(養護型)", "address": "臺北市北投區行義路105號1~2樓" }, "geometry": { "type": "Point", "coordinates": [ 121.5284, 25.1277 ] } },
{ "type": "Feature", "properties": { "main_type": "銀髮族服務", "sub_type": "養護型", "name": "臺北市私立軒儀老人長期照顧中心(養護型)", "address": "臺北市萬華區和平西路三段384號1樓" }, "geometry": { "type": "Point", "coordinates": [ 121.4913, 25.0353 ] } },
{ "type": "Feature", "properties": { "main_type": "銀髮族服務", "sub_type": "養護型", "name": "臺北市私立葉爸爸老人長期照顧中心(養護型)", "address": "臺北市萬華區西園路二段243之14號1~4樓" }, "geometry": { "type": "Point", "coordinates": [ 121.4935, 25.0266 ] } },
{ "type": "Feature", "properties": { "main_type": "銀髮族服務", "sub_type": "養護型", "name": "臺北市私立葉媽媽老人長期照顧中心(養護型)", "address": "臺北市萬華區西園路二段243之13號1~4樓" }, "geometry": { "type": "Point", "coordinates": [ 121.4935, 25.0266 ] } },
{ "type": "Feature", "properties": { "main_type": "銀髮族服務", "sub_type": "養護型", "name": "臺北市私立建順老人長期照顧中心(養護型)", "address": "臺北市大同區甘州街55號3樓" }, "geometry": { "type": "Point", "coordinates": [ 121.5128, 25.0598 ] } },
{ "type": "Feature", "properties": { "main_type": "銀髮族服務", "sub_type": "養護型", "name": "臺北市私立怡靜老人長期照顧中心(養護型)", "address": "臺北市北投區致遠二路96巷3弄1、3號1樓" }, "geometry": { "type": "Point", "coordinates": [ 121.5127, 25.1164 ] } },
{ "type": "Feature", "properties": { "main_type": "銀髮族服務", "sub_type": "養護型", "name": "臺北市私立建興老人長期照顧中心(養護型)", "address": "臺北市大同區甘州街55號2樓" }, "geometry": { "type": "Point", "coordinates": [ 121.5128, 25.0598 ] } },
{ "type": "Feature", "properties": { "main_type": "銀髮族服務", "sub_type": "養護型", "name": "臺北市私立晉安老人長期照顧中心(養護型)", "address": "臺北市大同區重慶北路三段175、177號1~4樓" }, "geometry": { "type": "Point", "coordinates": [ 121.5136, 25.0728 ] } },
{ "type": "Feature", "properties": { "main_type": "銀髮族服務", "sub_type": "養護型", "name": "臺北市私立祥安尊榮老人長期照顧中心(養護型)", "address": "臺北市大同區延平北路三段4號2樓" }, "geometry": { "type": "Point", "coordinates": [ 121.511, 25.0634 ] } },
{ "type": "Feature", "properties": { "main_type": "銀髮族服務", "sub_type": "養護型", "name": "臺北市私立祥寶尊榮老人長期照顧中心(養護型)", "address": "臺北市大同區太原路97巷4、6號" }, "geometry": { "type": "Point", "coordinates": [ 121.5167, 25.0521 ] } },
{ "type": "Feature", "properties": { "main_type": "銀髮族服務", "sub_type": "養護型", "name": "臺北市私立敦煌老人長期照顧中心(養護型)", "address": "臺北市大同區敦煌路80巷3號及3-1號1樓" }, "geometry": { "type": "Point", "coordinates": [ 121.5175, 25.0749 ] } },
{ "type": "Feature", "properties": { "main_type": "銀髮族服務", "sub_type": "養護型", "name": "臺北市私立德寶老人養護所", "address": "臺北市大同區長安西路78巷4弄11號1~4樓" }, "geometry": { "type": "Point", "coordinates": [ 121.5186, 25.05 ] } },
{ "type": "Feature", "properties": { "main_type": "銀髮族服務", "sub_type": "養護型", "name": "臺北市私立慧光老人養護所", "address": "臺北市大同區寧夏路32號5樓" }, "geometry": { "type": "Point", "coordinates": [ 121.5152, 25.056 ] } },
{ "type": "Feature", "properties": { "main_type": "銀髮族服務", "sub_type": "養護型", "name": "臺北市私立上上老人養護所", "address": "臺北市大安區復興南路一段279巷14、16號1樓" }, "geometry": { "type": "Point", "coordinates": [ 121.5453, 25.0355 ] } },
{ "type": "Feature", "properties": { "main_type": "銀髮族服務", "sub_type": "養護型", "name": "臺北市私立天恩老人長期照顧中心(養護型)", "address": "臺北市大安區新生南路三段7-4號、9-4號、9-5號" }, "geometry": { "type": "Point", "coordinates": [ 121.535, 25.0255 ] } },
{ "type": "Feature", "properties": { "main_type": "銀髮族服務", "sub_type": "養護型", "name": "臺北市私立健全老人長期照顧中心(養護型)", "address": "臺北市大安區金山南路二段152號2、3、4、5、6樓" }, "geometry": { "type": "Point", "coordinates": [ 121.5261, 25.0287 ] } },
{ "type": "Feature", "properties": { "main_type": "銀髮族服務", "sub_type": "養護型", "name": "臺北市私立康寧老人長期照顧中心(養護型)", "address": "臺北市大安區仁愛路四段300巷20弄15號2樓、17號2樓" }, "geometry": { "type": "Point", "coordinates": [ 121.5535, 25.0363 ] } },
{ "type": "Feature", "properties": { "main_type": "銀髮族服務", "sub_type": "養護型", "name": "臺北市私立新常安老人長期照顧中心(養護型)", "address": "臺北市大安區安居街46巷14號1~3樓及臺北市大安區和平東路3段228巷39號2樓" }, "geometry": { "type": "Point", "coordinates": [ 121.5536, 25.0207 ] } },
{ "type": "Feature", "properties": { "main_type": "銀髮族服務", "sub_type": "養護型", "name": "臺北市私立嘉恩老人長期照顧中心(養護型)", "address": "臺北市大安區安居街27號4、6樓及29號4、5樓" }, "geometry": { "type": "Point", "coordinates": [ 121.5546, 25.0206 ] } },
{ "type": "Feature", "properties": { "main_type": "銀髮族服務", "sub_type": "養護型", "name": "臺北市私立仁群老人長期照顧中心(養護型)", "address": "臺北市中山區民族東路512巷14號1~2樓、16號2樓" }, "geometry": { "type": "Point", "coordinates": [ 121.5419, 25.0674 ] } },
{ "type": "Feature", "properties": { "main_type": "銀髮族服務", "sub_type": "養護型", "name": "臺北市私立松青園老人養護所", "address": "臺北市中山區民生西路30號2樓、2樓之1~4" }, "geometry": { "type": "Point", "coordinates": [ 121.5216, 25.0576 ] } },
{ "type": "Feature", "properties": { "main_type": "銀髮族服務", "sub_type": "養護型", "name": "臺北市私立松湛園老人養護所", "address": "臺北市中山區錦州街4巷1號2樓、2樓之1" }, "geometry": { "type": "Point", "coordinates": [ 121.5235, 25.06 ] } },
{ "type": "Feature", "properties": { "main_type": "銀髮族服務", "sub_type": "養護型", "name": "臺北市私立法泉老人長期照顧中心(養護型)", "address": "臺北市中山區八德路二段251號2樓" }, "geometry": { "type": "Point", "coordinates": [ 121.541, 25.047 ] } },
{ "type": "Feature", "properties": { "main_type": "銀髮族服務", "sub_type": "養護型", "name": "臺北市私立建民老人長期照顧中心(養護型)", "address": "臺北市北投區建民路22、24、26、26之1號1樓" }, "geometry": { "type": "Point", "coordinates": [ 121.5216, 25.1137 ] } },
{ "type": "Feature", "properties": { "main_type": "銀髮族服務", "sub_type": "養護型", "name": "臺北市私立倚青園老人長期照顧中心(養護型)", "address": "臺北市北投區義理街63巷4弄7、11之1~3號1樓" }, "geometry": { "type": "Point", "coordinates": [ 121.5156, 25.1182 ] } },
{ "type": "Feature", "properties": { "main_type": "銀髮族服務", "sub_type": "養護型", "name": "臺北市私立高德老人長期照顧中心(養護型)", "address": "臺北市北投區磺港路156號1~3樓" }, "geometry": { "type": "Point", "coordinates": [ 121.503, 25.1287 ] } },
{ "type": "Feature", "properties": { "main_type": "銀髮族服務", "sub_type": "養護型", "name": "臺北市私立崇順老人養護所", "address": "臺北市北投區知行路52巷1號及54號1~2樓" }, "geometry": { "type": "Point", "coordinates": [ 121.4674, 25.1181 ] } },
{ "type": "Feature", "properties": { "main_type": "銀髮族服務", "sub_type": "養護型", "name": "臺北市私立尊暉老人長期照顧中心(養護型)", "address": "臺北市北投區石牌路二段343巷17號1~2樓" }, "geometry": { "type": "Point", "coordinates": [ 121.5235, 25.1227 ] } },
{ "type": "Feature", "properties": { "main_type": "銀髮族服務", "sub_type": "養護型", "name": "臺北市私立陽明山老人長期照顧中心(養護型)", "address": "臺北市北投區紗帽路116號" }, "geometry": { "type": "Point", "coordinates": [ 121.5472, 25.1509 ] } },
{ "type": "Feature", "properties": { "main_type": "銀髮族服務", "sub_type": "養護型", "name": "臺北市私立聖心老人養護所", "address": "臺北市北投區稻香路321號1樓" }, "geometry": { "type": "Point", "coordinates": [ 121.4866, 25.1429 ] } },
{ "type": "Feature", "properties": { "main_type": "銀髮族服務", "sub_type": "養護型", "name": "臺北市私立賢暉老人長期照顧中心(養護型)", "address": "臺北市北投區石牌路二段315巷34弄14、16號1樓" }, "geometry": { "type": "Point", "coordinates": [ 121.5224, 25.1238 ] } },
{ "type": "Feature", "properties": { "main_type": "銀髮族服務", "sub_type": "養護型", "name": "財團法人臺灣基督教道生院附設臺北市私立道生院老人長期照顧中心(養護型)", "address": "臺北市北投區中和街錫安巷112號1-2樓及地下1樓" }, "geometry": { "type": "Point", "coordinates": [ 121.5009, 25.1475 ] } },
{ "type": "Feature", "properties": { "main_type": "銀髮族服務", "sub_type": "養護型", "name": "臺北市私立豪門老人長期照顧中心(養護型)", "address": "臺北市北投區大業路452巷2號6~9樓" }, "geometry": { "type": "Point", "coordinates": [ 121.4971, 25.1315 ] } },
{ "type": "Feature", "properties": { "main_type": "銀髮族服務", "sub_type": "養護型", "name": "臺北市私立貴族老人長期照顧中心(養護型)", "address": "臺北市北投區大業路452巷2號2~5樓" }, "geometry": { "type": "Point", "coordinates": [ 121.4971, 25.1315 ] } },
{ "type": "Feature", "properties": { "main_type": "銀髮族服務", "sub_type": "養護型", "name": "臺北市私立奇里岸老人長期照顧中心(養護型)", "address": "臺北市北投區西安街二段245號1.2樓" }, "geometry": { "type": "Point", "coordinates": [ 121.5082, 25.1201 ] } },
{ "type": "Feature", "properties": { "main_type": "銀髮族服務", "sub_type": "養護型", "name": "臺北市私立安安老人長期照顧中心(養護型)", "address": "臺北市北投區公舘路194、196號1樓" }, "geometry": { "type": "Point", "coordinates": [ 121.5073, 25.1281 ] } },
{ "type": "Feature", "properties": { "main_type": "銀髮族服務", "sub_type": "養護型", "name": "臺北市私立晨欣老人長期照顧中心(養護型)", "address": "臺北市中山區中山北路二段96巷19號3樓" }, "geometry": { "type": "Point", "coordinates": [ 121.522, 25.0599 ] } },
{ "type": "Feature", "properties": { "main_type": "銀髮族服務", "sub_type": "養護型", "name": "臺北市私立安安老人長期照顧中心(養護型)", "address": "臺北市北投區公舘路194、196號1樓" }, "geometry": { "type": "Point", "coordinates": [ 121.502, 25.1204 ] } },
{ "type": "Feature", "properties": { "main_type": "銀髮族服務", "sub_type": "養護型", "name": "臺北市私立上美老人長期照顧中心(養護型)", "address": "臺北市士林區重慶北路四段162號1-4樓" }, "geometry": { "type": "Point", "coordinates": [ 121.5122, 25.0841 ] } },
{ "type": "Feature", "properties": { "main_type": "銀髮族服務", "sub_type": "養護型", "name": "臺北市私立天玉老人長期照顧中心(長期照護型)", "address": "臺北市士林區天玉街38巷18弄18號1-6樓" }, "geometry": { "type": "Point", "coordinates": [ 121.5303, 25.1201 ] } },
{ "type": "Feature", "properties": { "main_type": "銀髮族服務", "sub_type": "養護型", "name": "臺北市私立永青老人長期照顧中心(養護型)", "address": "臺北市士林區中山北路六段427巷8號1~4樓" }, "geometry": { "type": "Point", "coordinates": [ 121.5265, 25.1143 ] } },
{ "type": "Feature", "properties": { "main_type": "銀髮族服務", "sub_type": "養護型", "name": "臺北市私立松園老人長期照顧中心(養護型)", "address": "臺北市士林區德行東路61巷1、2、3號1、2樓" }, "geometry": { "type": "Point", "coordinates": [ 121.5267, 25.1078 ] } },
{ "type": "Feature", "properties": { "main_type": "銀髮族服務", "sub_type": "養護型", "name": "臺北市私立柏安老人養護所", "address": "臺北市士林區中山北路六段290巷52、54號1樓" }, "geometry": { "type": "Point", "coordinates": [ 121.5273, 25.1089 ] } },
{ "type": "Feature", "properties": { "main_type": "銀髮族服務", "sub_type": "養護型", "name": "臺北市私立祇福老人養護所", "address": "臺北市士林區忠誠路二段10巷11、13號1~2樓" }, "geometry": { "type": "Point", "coordinates": [ 121.5291, 25.1087 ] } },
{ "type": "Feature", "properties": { "main_type": "銀髮族服務", "sub_type": "養護型", "name": "臺北市私立祐心老人長期照顧中心(養護型)", "address": "臺北市士林區至誠路一段305巷3弄14號1-2樓" }, "geometry": { "type": "Point", "coordinates": [ 121.5317, 25.1015 ] } },
{ "type": "Feature", "properties": { "main_type": "銀髮族服務", "sub_type": "養護型", "name": "臺北市私立荷園老人長期照顧中心(養護型)", "address": "臺北市士林區葫蘆街33號2~3樓" }, "geometry": { "type": "Point", "coordinates": [ 121.5097, 25.08 ] } },
{ "type": "Feature", "properties": { "main_type": "銀髮族服務", "sub_type": "養護型", "name": "臺北市私立璞園老人長期照顧中心(養護型)", "address": "臺北市士林區葫蘆街33號4、5、6樓" }, "geometry": { "type": "Point", "coordinates": [ 121.5097, 25.08 ] } },
{ "type": "Feature", "properties": { "main_type": "銀髮族服務", "sub_type": "長青學苑", "name": "臺北市松山社區大學", "address": "臺北市松山區八德路四段101號" }, "geometry": { "type": "Point", "coordinates": [ 121.5611, 25.0487 ] } },
{ "type": "Feature", "properties": { "main_type": "銀髮族服務", "sub_type": "養護型", "name": "臺北市私立仁家老人長期照顧中心(養護型)", "address": "臺北市大同區甘州街55號5~6樓" }, "geometry": { "type": "Point", "coordinates": [ 121.5128, 25.0598 ] } },
{ "type": "Feature", "properties": { "main_type": "銀髮族服務", "sub_type": "養護型", "name": "臺北市私立永安老人養護所", "address": "臺北市大同區重慶北路三段284號2~4樓、286號1~4樓" }, "geometry": { "type": "Point", "coordinates": [ 121.5136, 25.0731 ] } },
{ "type": "Feature", "properties": { "main_type": "銀髮族服務", "sub_type": "養護型", "name": "臺北市私立群仁老人長期照顧中心(養護型)", "address": "臺北市中山區民族東路512巷14號3~5樓" }, "geometry": { "type": "Point", "coordinates": [ 121.5419, 25.0674 ] } },
{ "type": "Feature", "properties": { "main_type": "銀髮族服務", "sub_type": "養護型", "name": "臺北市私立福成老人長期照顧中心(養護型)", "address": "臺北市中山區松江路374、380、382號4樓" }, "geometry": { "type": "Point", "coordinates": [ 121.5327, 25.068 ] } },
{ "type": "Feature", "properties": { "main_type": "銀髮族服務", "sub_type": "養護型", "name": "臺北市私立福喜老人長期照顧中心(養護型)", "address": "臺北市中山區松江路374、380、382號7樓" }, "geometry": { "type": "Point", "coordinates": [ 121.5327, 25.068 ] } },
{ "type": "Feature", "properties": { "main_type": "銀髮族服務", "sub_type": "養護型", "name": "臺北市私立龍江老人長期照顧中心(養護型)", "address": "臺北市中山區長安東路一段63號4樓" }, "geometry": { "type": "Point", "coordinates": [ 121.5272, 25.0487 ] } },
{ "type": "Feature", "properties": { "main_type": "銀髮族服務", "sub_type": "養護型", "name": "臺北市私立大園老人長期照顧中心(養護型)", "address": "臺北市中正區新生南路一段124之3號1~4樓" }, "geometry": { "type": "Point", "coordinates": [ 121.5325, 25.0378 ] } },
{ "type": "Feature", "properties": { "main_type": "銀髮族服務", "sub_type": "養護型", "name": "臺北市私立仁泰老人長期照顧中心(養護型)", "address": "臺北市中正區連雲街3號1、3樓、3之4號及新生南路1段124之3號5樓" }, "geometry": { "type": "Point", "coordinates": [ 121.5323, 25.0376 ] } },
{ "type": "Feature", "properties": { "main_type": "銀髮族服務", "sub_type": "養護型", "name": "臺北市私立明德老人長期照顧中心(養護型)", "address": "臺北市中正區詔安街220巷2、4號1樓" }, "geometry": { "type": "Point", "coordinates": [ 121.5092, 25.0262 ] } },
{ "type": "Feature", "properties": { "main_type": "銀髮族服務", "sub_type": "養護型", "name": "臺北市私立博愛長期照顧中心(養護型)", "address": "臺北市中正區汀州路三段56號2樓" }, "geometry": { "type": "Point", "coordinates": [ 121.5309, 25.0158 ] } },
{ "type": "Feature", "properties": { "main_type": "銀髮族服務", "sub_type": "養護型", "name": "臺北市私立文德老人長期照顧中心(養護型)", "address": "臺北市內湖區陽光街70-2、70-3、72、72-1號1樓" }, "geometry": { "type": "Point", "coordinates": [ 121.5764, 25.0727 ] } },
{ "type": "Feature", "properties": { "main_type": "銀髮族服務", "sub_type": "養護型", "name": "臺北市私立祥家老人養護所", "address": "臺北市內湖區內湖路二段253巷1弄1、3號1-2樓" }, "geometry": { "type": "Point", "coordinates": [ 121.59, 25.0825 ] } },
{ "type": "Feature", "properties": { "main_type": "銀髮族服務", "sub_type": "養護型", "name": "臺北市私立湖濱老人長期照顧中心(養護型)", "address": "臺北市內湖區內湖路二段179巷58、60號1樓" }, "geometry": { "type": "Point", "coordinates": [ 121.5866, 25.0829 ] } },
{ "type": "Feature", "properties": { "main_type": "銀髮族服務", "sub_type": "養護型", "name": "臺北市私立童音老人長期照顧中心(養護型)", "address": "臺北市內湖區民權東路六段280巷19弄1、3、5、7號1樓" }, "geometry": { "type": "Point", "coordinates": [ 121.605, 25.0716 ] } },
{ "type": "Feature", "properties": { "main_type": "銀髮族服務", "sub_type": "養護型", "name": "臺北市私立瑞安老人長期照顧中心(養護型)", "address": "臺北市內湖區成功路三段88、90、92號2樓、76巷9號2樓" }, "geometry": { "type": "Point", "coordinates": [ 121.5908, 25.0804 ] } },
{ "type": "Feature", "properties": { "main_type": "銀髮族服務", "sub_type": "養護型", "name": "臺北市私立銀髮族老人養護所", "address": "臺北市內湖區成功路二段488號2~5樓、490號2~4樓" }, "geometry": { "type": "Point", "coordinates": [ 121.5897, 25.0733 ] } },
{ "type": "Feature", "properties": { "main_type": "銀髮族服務", "sub_type": "養護型", "name": "臺北市私立同德老人長期照顧中心(養護型)", "address": "臺北市北投區明德路306號1-7樓" }, "geometry": { "type": "Point", "coordinates": [ 121.5223, 25.1152 ] } },
{ "type": "Feature", "properties": { "main_type": "銀髮族服務", "sub_type": "養護型", "name": "臺北市私立義行老人長期照顧中心(養護型)", "address": "臺北市北投區石牌路二段357巷1號4~6樓" }, "geometry": { "type": "Point", "coordinates": [ 121.5249, 25.1237 ] } },
{ "type": "Feature", "properties": { "main_type": "銀髮族服務", "sub_type": "養護型", "name": "臺北市私立榮祥老人長期照顧中心(養護型)", "address": "臺北市北投區文林北路166巷5弄2號1~2樓、4號1樓" }, "geometry": { "type": "Point", "coordinates": [ 121.5162, 25.1072 ] } },
{ "type": "Feature", "properties": { "main_type": "銀髮族服務", "sub_type": "養護型", "name": "臺北市私立全民老人長期照顧中心(養護型)", "address": "臺北市北投區石牌路二段317號1~2樓" }, "geometry": { "type": "Point", "coordinates": [ 121.5233, 25.1218 ] } },
{ "type": "Feature", "properties": { "main_type": "銀髮族服務", "sub_type": "養護型", "name": "臺北市私立行義老人長期照顧中心(養護型)", "address": "臺北市北投區石牌路二段357巷1號1~3樓" }, "geometry": { "type": "Point", "coordinates": [ 121.5249, 25.1237 ] } },
{ "type": "Feature", "properties": { "main_type": "銀髮族服務", "sub_type": "養護型", "name": "臺北市私立全家老人長期照顧中心(養護型)", "address": "臺北市北投區行義路96巷1號1~2樓" }, "geometry": { "type": "Point", "coordinates": [ 121.5289, 25.1266 ] } },
{ "type": "Feature", "properties": { "main_type": "銀髮族服務", "sub_type": "養護型", "name": "臺北市私立全寶老人長期照顧中心(養護型)", "address": "臺北市北投區石牌路二段315巷16弄2、2-1號1樓" }, "geometry": { "type": "Point", "coordinates": [ 121.522, 25.1227 ] } },
{ "type": "Feature", "properties": { "main_type": "銀髮族服務", "sub_type": "養護型", "name": "臺北市私立榮健老人長期照顧中心(養護型)", "address": "臺北市北投區文林北路94巷5弄13號1~2樓、15號2樓" }, "geometry": { "type": "Point", "coordinates": [ 121.5178, 25.1065 ] } },
{ "type": "Feature", "properties": { "main_type": "銀髮族服務", "sub_type": "養護型", "name": "臺北市私立仁仁老人長期照顧中心(養護型)", "address": "臺北市松山區南京東路五段356號2樓" }, "geometry": { "type": "Point", "coordinates": [ 121.5697, 25.0511 ] } },
{ "type": "Feature", "properties": { "main_type": "銀髮族服務", "sub_type": "養護型", "name": "臺北市私立台大老人長期照顧中心(養護型)", "address": "臺北市松山區敦化南路一段7號4樓之1" }, "geometry": { "type": "Point", "coordinates": [ 121.5493, 25.0469 ] } },
{ "type": "Feature", "properties": { "main_type": "銀髮族服務", "sub_type": "養護型", "name": "臺北市私立康壯老人長期照顧中心(養護型)", "address": "臺北市松山區八德路四段203、205號1、2樓" }, "geometry": { "type": "Point", "coordinates": [ 121.559, 25.0485 ] } },
{ "type": "Feature", "properties": { "main_type": "銀髮族服務", "sub_type": "養護型", "name": "臺北市私立群英老人長期照顧中心(養護型)", "address": "臺北市松山區敦化南路一段7號4樓" }, "geometry": { "type": "Point", "coordinates": [ 121.5493, 25.0469 ] } },
{ "type": "Feature", "properties": { "main_type": "銀髮族服務", "sub_type": "養護型", "name": "臺北市私立倚青苑老人養護所", "address": "臺北市信義區中坡北路21號1~2樓、23號2樓" }, "geometry": { "type": "Point", "coordinates": [ 121.5808, 25.0449 ] } },
{ "type": "Feature", "properties": { "main_type": "銀髮族服務", "sub_type": "養護型", "name": "臺北市私立康庭老人養護所", "address": "臺北市信義區信義路六段15巷16號1樓" }, "geometry": { "type": "Point", "coordinates": [ 121.5754, 25.0352 ] } },
{ "type": "Feature", "properties": { "main_type": "銀髮族服務", "sub_type": "養護型", "name": "臺北市私立福安老人長期照顧中心(養護型)", "address": "臺北市南港區玉成街140巷21、23號2樓" }, "geometry": { "type": "Point", "coordinates": [ 121.583, 25.0447 ] } },
{ "type": "Feature", "properties": { "main_type": "銀髮族服務", "sub_type": "養護型", "name": "財團法人臺北市私立愛愛院", "address": "臺北市萬華區糖?里大理街175巷27號" }, "geometry": { "type": "Point", "coordinates": [ 121.4956, 25.0345 ] } },
{ "type": "Feature", "properties": { "main_type": "銀髮族服務", "sub_type": "養護型", "name": "財團法人臺北市私立愛愛院", "address": "臺北市萬華區糖?里大理街175巷27號" }, "geometry": { "type": "Point", "coordinates": [ 121.4956, 25.0345 ] } },
{ "type": "Feature", "properties": { "main_type": "銀髮族服務", "sub_type": "失智照顧型", "name": "財團法人天主教失智老人社會福利基金會附設臺北市私立聖若瑟失智老人養護中心", "address": "臺北市萬華區德昌街125巷11號1~4樓、13號1樓" }, "geometry": { "type": "Point", "coordinates": [ 121.497, 25.024 ] } },
{ "type": "Feature", "properties": { "main_type": "銀髮族服務", "sub_type": "長青學苑", "name": "臺北市信義社區大學", "address": "臺北市信義區松仁路158巷1號" }, "geometry": { "type": "Point", "coordinates": [ 121.5679, 25.0286 ] } },
{ "type": "Feature", "properties": { "main_type": "銀髮族服務", "sub_type": "失智照顧型", "name": "委託經營管理臺北市北投奇岩樂活大樓(北投老人服務中心)", "address": "臺北市北投區奇岩里三合街一段119號" }, "geometry": { "type": "Point", "coordinates": [ 121.5039, 25.1266 ] } },
{ "type": "Feature", "properties": { "main_type": "銀髮族服務", "sub_type": "失智照顧型", "name": "財團法人台北市中國基督教靈糧堂世界佈道會士林靈糧堂附設臺北私立天母社區式服務類長期照顧服務服務機構", "address": "臺北市士林區德行東路338巷12之1號" }, "geometry": { "type": "Point", "coordinates": [ 121.5403, 25.1086 ] } },
{ "type": "Feature", "properties": { "main_type": "銀髮族服務", "sub_type": "安養機構", "name": "臺北市政府社會局老人自費安養中心", "address": "臺北市文山區忠順里興隆路四段109巷30弄6號" }, "geometry": { "type": "Point", "coordinates": [ 121.5622, 24.9866 ] } },
{ "type": "Feature", "properties": { "main_type": "銀髮族服務", "sub_type": "安養機構", "name": "臺北市立浩然敬老院", "address": "臺北市北投區知行路75號" }, "geometry": { "type": "Point", "coordinates": [ 121.4678, 25.1183 ] } },
{ "type": "Feature", "properties": { "main_type": "銀髮族服務", "sub_type": "老人公寓/住宅", "name": "臺北市陽明老人公寓", "address": "臺北市士林區格致路7號3-6樓" }, "geometry": { "type": "Point", "coordinates": [ 121.5461, 25.1363 ] } },
{ "type": "Feature", "properties": { "main_type": "銀髮族服務", "sub_type": "老人公寓/住宅", "name": "臺北市大龍老人住宅", "address": "臺北市大同區民族西路105號4-9樓" }, "geometry": { "type": "Point", "coordinates": [ 121.5171, 25.0688 ] } },
{ "type": "Feature", "properties": { "main_type": "銀髮族服務", "sub_type": "老人公寓/住宅", "name": "臺北市朱崙老人公寓", "address": "臺北市中山區龍江路15號4-7樓" }, "geometry": { "type": "Point", "coordinates": [ 121.5406, 25.0474 ] } },
{ "type": "Feature", "properties": { "main_type": "銀髮族服務", "sub_type": "老人公寓/住宅", "name": "臺北市中山老人住宅暨服務中心", "address": "臺北市中山區新生北路二段101巷2號1-6樓" }, "geometry": { "type": "Point", "coordinates": [ 121.5285, 25.0573 ] } },
{ "type": "Feature", "properties": { "main_type": "銀髮族服務", "sub_type": "團體家屋", "name": "財團法人私立廣恩老人養護中心附設臺北市私立陽明山社區長照機構", "address": "臺北市士林區陽明里15鄰仁民路15號" }, "geometry": { "type": "Point", "coordinates": [ 121.5435, 25.1336 ] } },
{ "type": "Feature", "properties": { "main_type": "銀髮族服務", "sub_type": "日間照顧中心", "name": "臺北市松山老人服務暨日間照顧中心", "address": "臺北市松山區健康路317號1樓" }, "geometry": { "type": "Point", "coordinates": [ 121.5666, 25.0545 ] } },
{ "type": "Feature", "properties": { "main_type": "銀髮族服務", "sub_type": "日間照顧中心", "name": "臺北市信義老人服務暨日間照顧中心", "address": "臺北市信義區興雅里松隆路36號4、5樓" }, "geometry": { "type": "Point", "coordinates": [ 121.5675, 25.0434 ] } },
{ "type": "Feature", "properties": { "main_type": "銀髮族服務", "sub_type": "日間照顧中心", "name": "臺北市南港老人服務暨日間照顧中心", "address": "臺北市南港區重陽路187巷5號2樓" }, "geometry": { "type": "Point", "coordinates": [ 121.5987, 25.0577 ] } },
{ "type": "Feature", "properties": { "main_type": "銀髮族服務", "sub_type": "日間照顧中心", "name": "臺北市萬華龍山老人服務暨日間照顧中心", "address": "臺北市萬華區梧州街36號2樓、2樓之2、3樓、3樓之1" }, "geometry": { "type": "Point", "coordinates": [ 121.4975, 25.0374 ] } },
{ "type": "Feature", "properties": { "main_type": "銀髮族服務", "sub_type": "日間照顧中心", "name": "臺北市立聯合醫院陽明院區得憶齋失智失能日間照顧中心", "address": "臺北市士林區雨聲街105號" }, "geometry": { "type": "Point", "coordinates": [ 121.5316, 25.1052 ] } },
{ "type": "Feature", "properties": { "main_type": "銀髮族服務", "sub_type": "日間照顧中心", "name": "臺北市大同昌吉老人社區長照機構", "address": "臺北市大同區昌吉街52號9-10樓" }, "geometry": { "type": "Point", "coordinates": [ 121.5163, 25.0658 ] } },
{ "type": "Feature", "properties": { "main_type": "銀髮族服務", "sub_type": "日間照顧中心", "name": "臺北市私立新生社區長照機構", "address": "臺北市大安區新生南路三段52-5號5樓" }, "geometry": { "type": "Point", "coordinates": [ 121.534, 25.0211 ] } },
{ "type": "Feature", "properties": { "main_type": "銀髮族服務", "sub_type": "日間照顧中心", "name": "臺北市立聯合醫院附設仁愛護理之家日間照護仁鶴軒", "address": "臺北市大安區仁愛路四段10號5樓" }, "geometry": { "type": "Point", "coordinates": [ 121.5453, 25.0375 ] } },
{ "type": "Feature", "properties": { "main_type": "銀髮族服務", "sub_type": "日間照顧中心", "name": "臺北市私立安歆松江社區長照機構", "address": "臺北市中山區松江路50號3樓A室" }, "geometry": { "type": "Point", "coordinates": [ 121.5327, 25.0482 ] } },
{ "type": "Feature", "properties": { "main_type": "銀髮族服務", "sub_type": "日間照顧中心", "name": "臺北市私立雲朵社區長照機構", "address": "臺北市中正區杭州南路一段63號4樓之1" }, "geometry": { "type": "Point", "coordinates": [ 121.5259, 25.0404 ] } },
{ "type": "Feature", "properties": { "main_type": "銀髮族服務", "sub_type": "日間照顧中心", "name": "臺北市西湖老人日間照顧中心", "address": "臺北市內湖區內湖路一段285號6樓" }, "geometry": { "type": "Point", "coordinates": [ 121.5666, 25.0824 ] } },
{ "type": "Feature", "properties": { "main_type": "銀髮族服務", "sub_type": "日間照顧中心", "name": "臺北市興隆老人日間照顧中心", "address": "臺北市文山區興隆路四段105巷47號B棟2樓" }, "geometry": { "type": "Point", "coordinates": [ 121.5631, 24.9883 ] } },
{ "type": "Feature", "properties": { "main_type": "銀髮族服務", "sub_type": "日間照顧中心", "name": "臺北市興隆老人日間照顧中心", "address": "臺北市文山區興隆路四段105巷47號B棟2樓" }, "geometry": { "type": "Point", "coordinates": [ 121.5631, 24.9883 ] } },
{ "type": "Feature", "properties": { "main_type": "銀髮族服務", "sub_type": "日間照顧中心", "name": "臺北市私立頤福社區長照機構", "address": "臺北市北投區裕民六路120號3樓" }, "geometry": { "type": "Point", "coordinates": [ 121.5176, 25.1145 ] } },
{ "type": "Feature", "properties": { "main_type": "銀髮族服務", "sub_type": "日間照顧中心", "name": "臺北市大同老人服務暨日間照顧中心", "address": "臺北市大同區重慶里重慶北路三段347號3樓" }, "geometry": { "type": "Point", "coordinates": [ 121.5141, 25.0748 ] } },
{ "type": "Feature", "properties": { "main_type": "銀髮族服務", "sub_type": "日間照顧中心", "name": "臺北市政府委託經營管理信義老人服務暨日間照顧中心(廣慈B標)", "address": "臺北市信義區福德街尚未有明確地址" }, "geometry": { "type": "Point", "coordinates": [ 121.5813, 25.0372 ] } },
{ "type": "Feature", "properties": { "main_type": "銀髮族服務", "sub_type": "日間照顧中心", "name": "臺北市政府委託經營管理臺北市瑞光社區長照機構", "address": "臺北市內湖區瑞光路尚未有明確地址" }, "geometry": { "type": "Point", "coordinates": [ 121.5666, 25.08 ] } },
{ "type": "Feature", "properties": { "main_type": "銀髮族服務", "sub_type": "日間照顧中心", "name": "臺北榮民總醫院附設遊詣居社區長照機構", "address": "臺北市北投區石牌路二段322號1樓" }, "geometry": { "type": "Point", "coordinates": [ 121.523, 25.1208 ] } },
{ "type": "Feature", "properties": { "main_type": "銀髮族服務", "sub_type": "日間照顧中心", "name": "臺北市政府社會局「委託辦理臺北市大安區老人日間照顧服務」", "address": "臺北市大安區新生南路三段52-5號5樓" }, "geometry": { "type": "Point", "coordinates": [ 121.534, 25.0211 ] } },
{ "type": "Feature", "properties": { "main_type": "銀髮族服務", "sub_type": "日間照顧中心", "name": "渥康國際股份有限公司附設臺北市私立康禾社區長照機構", "address": "臺北市松山區中正里26鄰南京東路三段２８５號3樓" }, "geometry": { "type": "Point", "coordinates": [ 121.5458, 25.052 ] } },
{ "type": "Feature", "properties": { "main_type": "銀髮族服務", "sub_type": "日間照顧中心", "name": "臺北市復華長青多元服務中心", "address": "臺北市中山區遼寧街185巷11號" }, "geometry": { "type": "Point", "coordinates": [ 121.5428, 25.0534 ] } },
{ "type": "Feature", "properties": { "main_type": "銀髮族服務", "sub_type": "日間照顧中心", "name": "臺北市中正區多元照顧中心(小規模多機能)", "address": "臺北市中正區羅斯福路二段5號2樓" }, "geometry": { "type": "Point", "coordinates": [ 121.5211, 25.0292 ] } },
{ "type": "Feature", "properties": { "main_type": "銀髮族服務", "sub_type": "日間照顧中心", "name": "臺北市西松老人日間照顧中心(小規模多機能服務)", "address": "臺北市松山區南京東路五段251巷46弄5號1-3樓" }, "geometry": { "type": "Point", "coordinates": [ 121.5648, 25.0534 ] } },
{ "type": "Feature", "properties": { "main_type": "銀髮族服務", "sub_type": "日間照顧中心", "name": "臺北市士林老人服務暨日間照顧中心", "address": "臺北市士林區忠誠路二段53巷7號5樓及6樓" }, "geometry": { "type": "Point", "coordinates": [ 121.5324, 25.1114 ] } },
{ "type": "Feature", "properties": { "main_type": "銀髮族服務", "sub_type": "日間照顧中心", "name": "臺北市政府社會局委託經營管理臺北市大安老人服務暨日間照顧中心(小規模多機能)", "address": "臺北市大安區四維路76巷12號1-5樓" }, "geometry": { "type": "Point", "coordinates": [ 121.5472, 25.0279 ] } },
{ "type": "Feature", "properties": { "main_type": "銀髮族服務", "sub_type": "日間照顧中心", "name": "臺北市中正老人服務暨日間照顧中心", "address": "臺北市中正區貴陽街一段60號" }, "geometry": { "type": "Point", "coordinates": [ 121.509, 25.0389 ] } },
{ "type": "Feature", "properties": { "main_type": "銀髮族服務", "sub_type": "小規模多機能", "name": "社團法人中華民國士林靈糧堂社會福利協會附設臺北市私立內湖社區長照機構", "address": "臺北市內湖區康樂街136巷15弄1、3、5號1樓" }, "geometry": { "type": "Point", "coordinates": [ 121.6186, 25.0723 ] } },
{ "type": "Feature", "properties": { "main_type": "銀髮族服務", "sub_type": "老人服務中心", "name": "臺北市政府社會局委託經營管理臺北市萬華老人服務中心", "address": "臺北市萬華區西寧南路4號A棟3樓" }, "geometry": { "type": "Point", "coordinates": [ 121.507, 25.0479 ] } },
{ "type": "Feature", "properties": { "main_type": "銀髮族服務", "sub_type": "老人服務中心", "name": "臺北市政府社會局委託辦理臺北市中正國宅銀髮族服務中心", "address": "臺北市萬華區青年路52號1樓之2" }, "geometry": { "type": "Point", "coordinates": [ 121.5035, 25.0254 ] } },
{ "type": "Feature", "properties": { "main_type": "銀髮族服務", "sub_type": "老人服務中心", "name": "臺北市政府社會局委託經營管理臺北市內湖老人服務中心", "address": "臺北市內湖區康樂街110巷16弄20號5、6樓" }, "geometry": { "type": "Point", "coordinates": [ 121.6184, 25.0704 ] } },
{ "type": "Feature", "properties": { "main_type": "銀髮族服務", "sub_type": "老人服務中心", "name": "臺北市政府社會局委託經營管理臺北市文山老人服務中心", "address": "臺北市文山區萬壽路27號6樓" }, "geometry": { "type": "Point", "coordinates": [ 121.5766, 24.9886 ] } },
{ "type": "Feature", "properties": { "main_type": "銀髮族服務", "sub_type": "石頭湯社區整合照顧服務", "name": "士林區社區整合照顧服務中心", "address": "臺北市士林區福志里幸福街5巷25號1樓" }, "geometry": { "type": "Point", "coordinates": [ 121.528, 25.0973 ] } },
{ "type": "Feature", "properties": { "main_type": "銀髮族服務", "sub_type": "石頭湯社區整合照顧服務", "name": "大同區社區整合照顧服務中心", "address": "臺北市大同區揚雅里昌吉街61巷41號1樓" }, "geometry": { "type": "Point", "coordinates": [ 121.5149, 25.067 ] } },
{ "type": "Feature", "properties": { "main_type": "銀髮族服務", "sub_type": "石頭湯社區整合照顧服務", "name": "大安區社區整合照顧服務中心", "address": "臺北市大安區法治里通化街192號1樓" }, "geometry": { "type": "Point", "coordinates": [ 121.5529, 25.0262 ] } },
{ "type": "Feature", "properties": { "main_type": "銀髮族服務", "sub_type": "石頭湯社區整合照顧服務", "name": "中山區社區整合照顧服務中心", "address": "臺北市中山區江山里合江街73巷4號1樓" }, "geometry": { "type": "Point", "coordinates": [ 121.5399, 25.0587 ] } },
{ "type": "Feature", "properties": { "main_type": "銀髮族服務", "sub_type": "石頭湯社區整合照顧服務", "name": "中正區社區整合照顧服務中心", "address": "臺北市中正區新營里愛國東路110巷16號" }, "geometry": { "type": "Point", "coordinates": [ 121.5211, 25.0322 ] } },
{ "type": "Feature", "properties": { "main_type": "銀髮族服務", "sub_type": "石頭湯社區整合照顧服務", "name": "內湖區社區整合照顧服務中心", "address": "臺北市內湖區明湖里康寧路三段99巷6弄12號1樓" }, "geometry": { "type": "Point", "coordinates": [ 121.6103, 25.0717 ] } },
{ "type": "Feature", "properties": { "main_type": "銀髮族服務", "sub_type": "石頭湯社區整合照顧服務", "name": "文山區社區整合照顧服務中心", "address": "臺北市文山區木新里保儀路115號" }, "geometry": { "type": "Point", "coordinates": [ 121.5676, 24.9857 ] } },
{ "type": "Feature", "properties": { "main_type": "銀髮族服務", "sub_type": "石頭湯社區整合照顧服務", "name": "北投區社區整合照顧服務中心", "address": "臺北市北投區關渡里知行路245巷14號1樓" }, "geometry": { "type": "Point", "coordinates": [ 121.4664, 25.1208 ] } },
{ "type": "Feature", "properties": { "main_type": "銀髮族服務", "sub_type": "石頭湯社區整合照顧服務", "name": "松山區社區整合照顧服務中心", "address": "臺北市松山區民福里復興北路451號1樓" }, "geometry": { "type": "Point", "coordinates": [ 121.5444, 25.064 ] } },
{ "type": "Feature", "properties": { "main_type": "銀髮族服務", "sub_type": "石頭湯社區整合照顧服務", "name": "信義區社區整合照顧服務中心", "address": "臺北市信義區黎平里和平東路三段341巷10號" }, "geometry": { "type": "Point", "coordinates": [ 121.5572, 25.0212 ] } },
{ "type": "Feature", "properties": { "main_type": "銀髮族服務", "sub_type": "石頭湯社區整合照顧服務", "name": "南港區社區整合照顧服務中心", "address": "臺北市南港區萬福里同德路85巷6號1樓" }, "geometry": { "type": "Point", "coordinates": [ 121.5855, 25.0464 ] } },
{ "type": "Feature", "properties": { "main_type": "銀髮族服務", "sub_type": "石頭湯社區整合照顧服務", "name": "萬華區社區整合照顧服務中心", "address": "臺北市萬華區忠德里德昌街180號" }, "geometry": { "type": "Point", "coordinates": [ 121.4956, 25.0238 ] } },
{ "type": "Feature", "properties": { "main_type": "銀髮族服務", "sub_type": "家庭照顧者服務中心", "name": "北區家庭照顧者支持中心(士林靈糧堂承辦)", "address": "臺北市士林區忠誠路二段53巷7號5樓" }, "geometry": { "type": "Point", "coordinates": [ 121.5324, 25.1114 ] } },
{ "type": "Feature", "properties": { "main_type": "銀髮族服務", "sub_type": "家庭照顧者服務中心", "name": "東區家庭照顧者支持中心(健順養護中心承辦)", "address": "臺北市中山區吉林路312號4樓" }, "geometry": { "type": "Point", "coordinates": [ 121.5302, 25.0619 ] } },
{ "type": "Feature", "properties": { "main_type": "銀髮族服務", "sub_type": "家庭照顧者服務中心", "name": "西區家庭照顧者支持中心(台北市立心慈善基金會承辦)", "address": "臺北市萬華區萬大路329巷1之1號1樓" }, "geometry": { "type": "Point", "coordinates": [ 121.5005, 25.0241 ] } },
{ "type": "Feature", "properties": { "main_type": "銀髮族服務", "sub_type": "家庭照顧者服務中心", "name": "南區家庭照顧者支持中心(婦女新知承辦)", "address": "臺北市中正區重慶南路三段2號3樓304室" }, "geometry": { "type": "Point", "coordinates": [ 121.5152, 25.0296 ] } },
{ "type": "Feature", "properties": { "main_type": "銀髮族服務", "sub_type": "社區照顧關懷據點", "name": "臺北市北投老人服務據點", "address": "臺北市北投區中央北路一段12號3、4樓" }, "geometry": { "type": "Point", "coordinates": [ 121.501, 25.1339 ] } },
{ "type": "Feature", "properties": { "main_type": "銀髮族服務", "sub_type": "長青學苑", "name": "國立臺灣戲曲學院", "address": "臺北市內湖區內湖路二段177號" }, "geometry": { "type": "Point", "coordinates": [ 121.5866, 25.0815 ] } },
{ "type": "Feature", "properties": { "main_type": "銀髮族服務", "sub_type": "長青學苑", "name": "臺北市中正社區大學", "address": "臺北市中正區濟南路一段6號" }, "geometry": { "type": "Point", "coordinates": [ 121.5218, 25.0424 ] } },
{ "type": "Feature", "properties": { "main_type": "銀髮族服務", "sub_type": "長青學苑", "name": "臺北市立大學", "address": "臺北市中正區愛國西路1號" }, "geometry": { "type": "Point", "coordinates": [ 121.5136, 25.0356 ] } },
{ "type": "Feature", "properties": { "main_type": "銀髮族服務", "sub_type": "長青學苑", "name": "淡江大學進修推廣處", "address": "臺北市大安區金華街199巷5號" }, "geometry": { "type": "Point", "coordinates": [ 121.5286, 25.031 ] } },
{ "type": "Feature", "properties": { "main_type": "銀髮族服務", "sub_type": "長青學苑", "name": "臺北市大同社區大學", "address": "臺北市大同區長安西路37-1號" }, "geometry": { "type": "Point", "coordinates": [ 121.5197, 25.0504 ] } },
{ "type": "Feature", "properties": { "main_type": "銀髮族服務", "sub_type": "長青學苑", "name": "臺北市萬華社區大學", "address": "臺北市萬華區南寧路46號" }, "geometry": { "type": "Point", "coordinates": [ 121.5046, 25.0361 ] } },
{ "type": "Feature", "properties": { "main_type": "銀髮族服務", "sub_type": "長青學苑", "name": "臺北市文山社區大學", "address": "臺北市文山區景中街27號" }, "geometry": { "type": "Point", "coordinates": [ 121.5429, 24.993 ] } },
{ "type": "Feature", "properties": { "main_type": "銀髮族服務", "sub_type": "長青學苑", "name": "臺北市大安社區大學", "address": "臺北市大安區杭州南路二段1號(金甌女中)" }, "geometry": { "type": "Point", "coordinates": [ 121.5242, 25.0349 ] } },
{ "type": "Feature", "properties": { "main_type": "銀髮族服務", "sub_type": "長青學苑", "name": "臺北市內湖社區大學", "address": "臺北市內湖區文德路240號3樓" }, "geometry": { "type": "Point", "coordinates": [ 121.5887, 25.0788 ] } },
{ "type": "Feature", "properties": { "main_type": "銀髮族服務", "sub_type": "長青學苑", "name": "臺北醫學大學進修推廣處", "address": "臺北市大安區基隆路二段172-1號13樓" }, "geometry": { "type": "Point", "coordinates": [ 121.5548, 25.0266 ] } },
{ "type": "Feature", "properties": { "main_type": "銀髮族服務", "sub_type": "長青學苑", "name": "臺北市中山社區大學", "address": "臺北市中山區新生北路三段55號" }, "geometry": { "type": "Point", "coordinates": [ 121.5286, 25.0654 ] } },
{ "type": "Feature", "properties": { "main_type": "銀髮族服務", "sub_type": "長青學苑", "name": "臺北市士林社區大學", "address": "臺北市士林區承德路四段177號（百齡高中）" }, "geometry": { "type": "Point", "coordinates": [ 121.523, 25.087 ] } },
{ "type": "Feature", "properties": { "main_type": "身障機構", "sub_type": "住宿機構", "name": "臺北市私立文山創世清寒植物人安養院", "address": "臺北市文山區萬和街8號五樓" }, "geometry": { "type": "Point", "coordinates": [ 121.5677, 25.002 ] } },
{ "type": "Feature", "properties": { "main_type": "身障機構", "sub_type": "住宿機構", "name": "臺北市廣愛家園", "address": "臺北市信義區大仁里福德街84巷" }, "geometry": { "type": "Point", "coordinates": [ 121.5807, 25.0387 ] } },
{ "type": "Feature", "properties": { "main_type": "身障機構", "sub_type": "住宿機構", "name": "臺北市私立世美家園", "address": "臺北市文山區萬芳路51號" }, "geometry": { "type": "Point", "coordinates": [ 121.5638, 24.9981 ] } },
{ "type": "Feature", "properties": { "main_type": "身障機構", "sub_type": "住宿機構", "name": "臺北市私立彩虹村家園", "address": "臺北市北投區泉源路華南巷18號一樓" }, "geometry": { "type": "Point", "coordinates": [ 121.507, 25.1403 ] } },
{ "type": "Feature", "properties": { "main_type": "身障機構", "sub_type": "住宿機構", "name": "臺北市私立陽明養護中心", "address": "臺北市北投區公舘路209巷18號" }, "geometry": { "type": "Point", "coordinates": [ 121.5088, 25.1275 ] } },
{ "type": "Feature", "properties": { "main_type": "身障機構", "sub_type": "住宿機構", "name": "臺北市私立陽明養護中心", "address": "臺北市北投區公舘路209巷18號" }, "geometry": { "type": "Point", "coordinates": [ 121.5088, 25.1275 ] } },
{ "type": "Feature", "properties": { "main_type": "身障機構", "sub_type": "住宿機構", "name": "臺北市私立永愛發展中心", "address": "臺北市信義區信義路五段150巷316號五樓" }, "geometry": { "type": "Point", "coordinates": [ 121.5696, 25.0269 ] } },
{ "type": "Feature", "properties": { "main_type": "身障機構", "sub_type": "住宿機構", "name": "臺北市南港養護中心", "address": "臺北市南港區松河街550號一樓" }, "geometry": { "type": "Point", "coordinates": [ 121.5986, 25.058 ] } },
{ "type": "Feature", "properties": { "main_type": "身障機構", "sub_type": "住宿機構", "name": "臺北市東明扶愛家園", "address": "臺北市南港區南港路二段38巷8弄1號" }, "geometry": { "type": "Point", "coordinates": [ 121.6043, 25.0551 ] } },
{ "type": "Feature", "properties": { "main_type": "身障機構", "sub_type": "住宿機構", "name": "臺北市東明扶愛家園", "address": "臺北市南港區南港路二段38巷8弄1號" }, "geometry": { "type": "Point", "coordinates": [ 121.6043, 25.0551 ] } },
{ "type": "Feature", "properties": { "main_type": "身障機構", "sub_type": "住宿機構", "name": "臺北市一壽照顧中心", "address": "臺北市文山區樟新里5鄰一壽街22號三、四樓" }, "geometry": { "type": "Point", "coordinates": [ 121.5563, 24.9797 ] } },
{ "type": "Feature", "properties": { "main_type": "身障機構", "sub_type": "住宿機構", "name": "崇愛發展中心", "address": "新北市中和區正行里7鄰圓通路143-1號" }, "geometry": { "type": "Point", "coordinates": [ 121.4989, 24.9951 ] } },
{ "type": "Feature", "properties": { "main_type": "身障機構", "sub_type": "住宿機構", "name": "崇愛發展中心", "address": "新北市中和區正行里7鄰圓通路143-1號" }, "geometry": { "type": "Point", "coordinates": [ 121.4989, 24.9951 ] } },
{ "type": "Feature", "properties": { "main_type": "身障機構", "sub_type": "住宿機構", "name": "臺北市三玉啟能中心", "address": "臺北市士林區忠誠路二段53巷7號3、4、7樓" }, "geometry": { "type": "Point", "coordinates": [ 121.5324, 25.1114 ] } },
{ "type": "Feature", "properties": { "main_type": "身障機構", "sub_type": "住宿機構", "name": "臺北市永福之家", "address": "臺北市士林區永福里5鄰莊頂路2號" }, "geometry": { "type": "Point", "coordinates": [ 121.5495, 25.1108 ] } },
{ "type": "Feature", "properties": { "main_type": "身障機構", "sub_type": "住宿機構", "name": "臺北市立陽明教養院(華岡院區)", "address": "臺北市士林區陽明里8鄰凱旋路61巷4弄9號" }, "geometry": { "type": "Point", "coordinates": [ 121.5412, 25.1352 ] } },
{ "type": "Feature", "properties": { "main_type": "身障機構", "sub_type": "住宿機構", "name": "臺北市私立聖安娜之家", "address": "臺北市士林區中山北路七段181巷1號" }, "geometry": { "type": "Point", "coordinates": [ 121.5322, 25.1245 ] } },
{ "type": "Feature", "properties": { "main_type": "身障機構", "sub_type": "住宿機構", "name": "臺北市大龍養護中心", "address": "臺北市大同區民族西路105號1-3樓" }, "geometry": { "type": "Point", "coordinates": [ 121.5171, 25.0688 ] } },
{ "type": "Feature", "properties": { "main_type": "身障機構", "sub_type": "住宿機構", "name": "臺北市私立育成和平發展中心", "address": "臺北市大安區臥龍街280號" }, "geometry": { "type": "Point", "coordinates": [ 121.5587, 25.0169 ] } },
{ "type": "Feature", "properties": { "main_type": "身障機構", "sub_type": "住宿機構", "name": "臺北市弘愛服務中心", "address": "臺北市中正區濟南路二段46號四樓" }, "geometry": { "type": "Point", "coordinates": [ 121.5309, 25.0404 ] } },
{ "type": "Feature", "properties": { "main_type": "身障機構", "sub_type": "住宿機構", "name": "臺北市私立創世清寒植物人安養院", "address": "臺北市中正區北平東路28號2樓" }, "geometry": { "type": "Point", "coordinates": [ 121.5254, 25.0459 ] } },
{ "type": "Feature", "properties": { "main_type": "身障機構", "sub_type": "住宿機構", "name": "臺北市金龍發展中心", "address": "臺北市內湖區金龍路136-1號" }, "geometry": { "type": "Point", "coordinates": [ 121.5901, 25.0858 ] } },
{ "type": "Feature", "properties": { "main_type": "身障機構", "sub_type": "住宿機構", "name": "臺北市興隆照顧中心", "address": "臺北市文山區興隆路四段105巷45號2樓" }, "geometry": { "type": "Point", "coordinates": [ 121.5625, 24.9882 ] } },
{ "type": "Feature", "properties": { "main_type": "身障機構", "sub_type": "住宿機構", "name": "臺北市興隆照顧中心", "address": "臺北市文山區興隆路四段105巷45號2樓" }, "geometry": { "type": "Point", "coordinates": [ 121.5625, 24.9882 ] } },
{ "type": "Feature", "properties": { "main_type": "身障機構", "sub_type": "社區居住", "name": "建成社區居住家園", "address": "臺北市大同區承德路二段33號4、5樓" }, "geometry": { "type": "Point", "coordinates": [ 121.5184, 25.0546 ] } },
{ "type": "Feature", "properties": { "main_type": "身障機構", "sub_type": "社區居住", "name": "士林社區居住家園(聖露薏絲家)", "address": "臺北市士林區中山北路七段191巷9號1樓" }, "geometry": { "type": "Point", "coordinates": [ 121.5317, 25.1254 ] } },
{ "type": "Feature", "properties": { "main_type": "身障機構", "sub_type": "社區居住", "name": "金南社區居住家園", "address": "臺北市大安區金山南路二段135號三樓" }, "geometry": { "type": "Point", "coordinates": [ 121.5267, 25.0297 ] } },
{ "type": "Feature", "properties": { "main_type": "身障機構", "sub_type": "社區居住", "name": "景仁社區居住(景仁家)", "address": "臺北市文山區羅斯福路六段276巷11號二樓" }, "geometry": { "type": "Point", "coordinates": [ 121.5393, 24.9915 ] } },
{ "type": "Feature", "properties": { "main_type": "身障機構", "sub_type": "社區居住", "name": "景仁社區居住(愛國家)", "address": "臺北市中正區愛國東路62號五樓" }, "geometry": { "type": "Point", "coordinates": [ 121.519, 25.0335 ] } },
{ "type": "Feature", "properties": { "main_type": "身障機構", "sub_type": "社區居住", "name": "臺北市文林社區居住家園", "address": "臺北市北投區文林北路75巷51號/53號/63號" }, "geometry": { "type": "Point", "coordinates": [ 121.5172, 25.1039 ] } },
{ "type": "Feature", "properties": { "main_type": "身障機構", "sub_type": "社區居住", "name": "臺北市松德社區居住家園", "address": "臺北市信義區松德路25巷58號三樓" }, "geometry": { "type": "Point", "coordinates": [ 121.5775, 25.0378 ] } },
{ "type": "Feature", "properties": { "main_type": "身障機構", "sub_type": "社區居住", "name": "臺北市萬大社區居住家園", "address": "臺北市萬華區萬大路411、413號" }, "geometry": { "type": "Point", "coordinates": [ 121.5007, 25.0321 ] } },
{ "type": "Feature", "properties": { "main_type": "身障機構", "sub_type": "社區居住", "name": "士林社區居住家園(德蘭家)", "address": "臺北市士林區0鄰中山北路七段146巷7、7-1號1樓" }, "geometry": { "type": "Point", "coordinates": [ 121.5331, 25.1232 ] } },
{ "type": "Feature", "properties": { "main_type": "身障機構", "sub_type": "團體家庭", "name": "臺北市興隆團體家庭", "address": "臺北市文山區木柵路二段138巷33號3樓" }, "geometry": { "type": "Point", "coordinates": [ 121.5623, 24.988 ] } },
{ "type": "Feature", "properties": { "main_type": "身障機構", "sub_type": "團體家庭", "name": "臺北市健軍團體家庭", "address": "臺北市中正區富水里4鄰汀州路三段60巷2弄6號" }, "geometry": { "type": "Point", "coordinates": [ 121.5307, 25.0155 ] } },
{ "type": "Feature", "properties": { "main_type": "身障機構", "sub_type": "團體家庭", "name": "臺北市興隆團體家庭", "address": "臺北市文山區木柵路二段138巷33號3樓" }, "geometry": { "type": "Point", "coordinates": [ 121.5623, 24.988 ] } },
{ "type": "Feature", "properties": { "main_type": "身障機構", "sub_type": "團體家庭", "name": "臺北市三興團體家庭", "address": "臺北市信義區景勤里5鄰吳興街156巷6號3樓" }, "geometry": { "type": "Point", "coordinates": [ 121.5612, 25.029 ] } },
{ "type": "Feature", "properties": { "main_type": "身障機構", "sub_type": "團體家庭", "name": "臺北市私立心路社區家園", "address": "臺北市文山區興旺里22鄰福興路63巷4弄29號一樓" }, "geometry": { "type": "Point", "coordinates": [ 121.549, 25.0047 ] } },
{ "type": "Feature", "properties": { "main_type": "身障機構", "sub_type": "日間服務機構", "name": "臺北市恆愛發展中心", "address": "臺北市信義區松隆路36號六樓" }, "geometry": { "type": "Point", "coordinates": [ 121.5675, 25.0434 ] } },
{ "type": "Feature", "properties": { "main_type": "身障機構", "sub_type": "社區日間作業設施", "name": "民生工坊", "address": "臺北市松山區敦化北路199巷5號三樓" }, "geometry": { "type": "Point", "coordinates": [ 121.5515, 25.057 ] } },
{ "type": "Feature", "properties": { "main_type": "身障機構", "sub_type": "日間服務機構", "name": "臺北市私立第一兒童發展中心(兼辦早療服務)", "address": "臺北市信義區信義路五段150巷316號一樓" }, "geometry": { "type": "Point", "coordinates": [ 121.5696, 25.0269 ] } },
{ "type": "Feature", "properties": { "main_type": "身障機構", "sub_type": "日間服務機構", "name": "臺北市私立育仁兒童發展中心(兼辦早療服務)", "address": "臺北市萬華區萬大路387巷15號" }, "geometry": { "type": "Point", "coordinates": [ 121.4997, 25.0221 ] } },
{ "type": "Feature", "properties": { "main_type": "身障機構", "sub_type": "日間服務機構", "name": "臺北市私立育仁啟能中心", "address": "臺北市萬華區柳州街41號四樓" }, "geometry": { "type": "Point", "coordinates": [ 121.5054, 25.0385 ] } },
{ "type": "Feature", "properties": { "main_type": "身障機構", "sub_type": "日間服務機構", "name": "臺北市私立自立社區學園", "address": "臺北市士林區德行西路93巷7號地下一樓之1" }, "geometry": { "type": "Point", "coordinates": [ 121.5209, 25.1049 ] } },
{ "type": "Feature", "properties": { "main_type": "身障機構", "sub_type": "日間服務機構", "name": "臺北市大同發展中心(兼辦早療服務)", "address": "臺北市大同區昌吉街52號六-七樓" }, "geometry": { "type": "Point", "coordinates": [ 121.5163, 25.0658 ] } },
{ "type": "Feature", "properties": { "main_type": "身障機構", "sub_type": "日間服務機構", "name": "臺北市博愛發展中心", "address": "臺北市中山區敬業三路160號" }, "geometry": { "type": "Point", "coordinates": [ 121.5566, 25.0795 ] } },
{ "type": "Feature", "properties": { "main_type": "身障機構", "sub_type": "日間服務機構", "name": "臺北市稻香發展中心", "address": "臺北市北投區稻香里0鄰稻香路81號2樓" }, "geometry": { "type": "Point", "coordinates": [ 121.4894, 25.1409 ] } },
{ "type": "Feature", "properties": { "main_type": "身障機構", "sub_type": "日間服務機構", "name": "臺北市私立陽光重建中心", "address": "臺北市中山區南京東路三段91號三樓" }, "geometry": { "type": "Point", "coordinates": [ 121.539, 25.0522 ] } },
{ "type": "Feature", "properties": { "main_type": "身障機構", "sub_type": "日間服務機構", "name": "臺北市萬芳啟能中心", "address": "臺北市文山區萬美街一段51號1樓" }, "geometry": { "type": "Point", "coordinates": [ 121.5685, 25.0023 ] } },
{ "type": "Feature", "properties": { "main_type": "身障機構", "sub_type": "日間服務機構", "name": "臺北市永明發展中心(兼辦早療服務)", "address": "臺北市北投區永明里4鄰石牌路二段115號四至六樓" }, "geometry": { "type": "Point", "coordinates": [ 121.5176, 25.1183 ] } },
{ "type": "Feature", "properties": { "main_type": "身障機構", "sub_type": "日間服務機構", "name": "臺北市私立心路兒童發展中心(兼辦早療服務)", "address": "臺北市中山區復興北路232號" }, "geometry": { "type": "Point", "coordinates": [ 121.5439, 25.0572 ] } },
{ "type": "Feature", "properties": { "main_type": "身障機構", "sub_type": "日間服務機構", "name": "臺北市城中發展中心(兼辦早療服務)", "address": "臺北市中正區汀州路二段172號" }, "geometry": { "type": "Point", "coordinates": [ 121.5221, 25.0238 ] } },
{ "type": "Feature", "properties": { "main_type": "身障機構", "sub_type": "日間服務機構", "name": "臺北市南海發展中心", "address": "臺北市中正區延平南路207號1-2樓" }, "geometry": { "type": "Point", "coordinates": [ 121.5077, 25.0329 ] } },
{ "type": "Feature", "properties": { "main_type": "身障機構", "sub_type": "日間服務機構", "name": "臺北市南海發展中心", "address": "臺北市中正區延平南路207號1-2樓" }, "geometry": { "type": "Point", "coordinates": [ 121.5077, 25.0329 ] } },
{ "type": "Feature", "properties": { "main_type": "身障機構", "sub_type": "日間服務機構", "name": "臺北市私立婦幼家園(兼辦早療服務)", "address": "臺北市內湖區民權東路六段180巷42弄6號" }, "geometry": { "type": "Point", "coordinates": [ 121.5923, 25.0673 ] } },
{ "type": "Feature", "properties": { "main_type": "身障機構", "sub_type": "日間服務機構", "name": "臺北市萬芳發展中心(兼辦早療服務)", "address": "臺北市文山區萬美街一段55號二樓" }, "geometry": { "type": "Point", "coordinates": [ 121.5681, 25.0023 ] } },
{ "type": "Feature", "properties": { "main_type": "身障機構", "sub_type": "日間服務機構", "name": "臺北市私立至德聽語中心(提供早療服務)", "address": "臺北市中正區0鄰中華路一段77號三樓" }, "geometry": { "type": "Point", "coordinates": [ 121.5078, 25.0389 ] } },
{ "type": "Feature", "properties": { "main_type": "身障機構", "sub_type": "日間服務機構", "name": "臺北市私立育成裕民發展中心", "address": "臺北市北投區裕民一路41巷2弄18號" }, "geometry": { "type": "Point", "coordinates": [ 121.5185, 25.1167 ] } },
{ "type": "Feature", "properties": { "main_type": "身障機構", "sub_type": "日間服務機構", "name": "臺北市慈祐發展中心", "address": "臺北市松山區八德路四段688號3-4樓" }, "geometry": { "type": "Point", "coordinates": [ 121.5769, 25.0499 ] } },
{ "type": "Feature", "properties": { "main_type": "身障機構", "sub_type": "社區日間作業設施", "name": "委託經營管理身心障礙者社區日間作業設施-瑞光工坊", "address": "臺北市內湖區瑞光路162號2樓之2" }, "geometry": { "type": "Point", "coordinates": [ 121.5793, 25.0734 ] } },
{ "type": "Feature", "properties": { "main_type": "身障機構", "sub_type": "社區日間作業設施", "name": "建成工坊", "address": "臺北市大同區承德路二段33號6樓" }, "geometry": { "type": "Point", "coordinates": [ 121.5184, 25.0546 ] } },
{ "type": "Feature", "properties": { "main_type": "身障機構", "sub_type": "社區日間作業設施", "name": "松山工坊", "address": "臺北市松山區新聚里3鄰南京東路五段356號6F-2" }, "geometry": { "type": "Point", "coordinates": [ 121.5697, 25.0511 ] } },
{ "type": "Feature", "properties": { "main_type": "身障機構", "sub_type": "社區日間作業設施", "name": "士林工坊(舊名，已停用)", "address": "臺北市士林區中山北路六段248號五樓" }, "geometry": { "type": "Point", "coordinates": [ 121.5255, 25.1092 ] } },
{ "type": "Feature", "properties": { "main_type": "身障機構", "sub_type": "社區日間作業設施", "name": "育成蘭興站", "address": "臺北市士林區磺溪街88巷5號一樓" }, "geometry": { "type": "Point", "coordinates": [ 121.5237, 25.1085 ] } },
{ "type": "Feature", "properties": { "main_type": "身障機構", "sub_type": "社區日間作業設施", "name": "心願工坊", "address": "臺北市大同區昌吉街52號八樓" }, "geometry": { "type": "Point", "coordinates": [ 121.5163, 25.0658 ] } },
{ "type": "Feature", "properties": { "main_type": "身障機構", "sub_type": "社區日間作業設施", "name": "大安工坊", "address": "臺北市大安區瑞安街73號三樓" }, "geometry": { "type": "Point", "coordinates": [ 121.5411, 25.0283 ] } },
{ "type": "Feature", "properties": { "main_type": "身障機構", "sub_type": "社區日間作業設施", "name": "天生我才大安站", "address": "臺北市大安區敦化南路二段200巷16號五樓" }, "geometry": { "type": "Point", "coordinates": [ 121.5476, 25.0228 ] } },
{ "type": "Feature", "properties": { "main_type": "身障機構", "sub_type": "社區日間作業設施", "name": "中山工坊", "address": "臺北市中山區建國北路二段260、262號3樓" }, "geometry": { "type": "Point", "coordinates": [ 121.5377, 25.061 ] } },
{ "type": "Feature", "properties": { "main_type": "身障機構", "sub_type": "社區日間作業設施", "name": "古亭工坊", "address": "臺北市中正區羅斯福路二段150號" }, "geometry": { "type": "Point", "coordinates": [ 121.5232, 25.0257 ] } },
{ "type": "Feature", "properties": { "main_type": "身障機構", "sub_type": "社區日間作業設施", "name": "夢想工坊", "address": "臺北市中正區南昌路二段192號五樓之3" }, "geometry": { "type": "Point", "coordinates": [ 121.5238, 25.0242 ] } },
{ "type": "Feature", "properties": { "main_type": "身障機構", "sub_type": "社區日間作業設施", "name": "星兒工坊", "address": "臺北市中正區寧波西街62號三樓" }, "geometry": { "type": "Point", "coordinates": [ 121.5171, 25.0304 ] } },
{ "type": "Feature", "properties": { "main_type": "身障機構", "sub_type": "社區日間作業設施", "name": "肯納和平坊", "address": "臺北市中正區和平西路二段6號四樓" }, "geometry": { "type": "Point", "coordinates": [ 121.5142, 25.0278 ] } },
{ "type": "Feature", "properties": { "main_type": "身障機構", "sub_type": "社區日間作業設施", "name": "內湖工坊", "address": "臺北市內湖區江南街71巷60號" }, "geometry": { "type": "Point", "coordinates": [ 121.5792, 25.0743 ] } },
{ "type": "Feature", "properties": { "main_type": "身障機構", "sub_type": "社區日間作業設施", "name": "文山工坊", "address": "臺北市文山區興隆路四段105巷47號1樓(興隆公宅2區)" }, "geometry": { "type": "Point", "coordinates": [ 121.5631, 24.9883 ] } },
{ "type": "Feature", "properties": { "main_type": "身障機構", "sub_type": "社區日間作業設施", "name": "文山工坊", "address": "臺北市文山區興隆路四段105巷47號1樓(興隆公宅2區)" }, "geometry": { "type": "Point", "coordinates": [ 121.5631, 24.9883 ] } },
{ "type": "Feature", "properties": { "main_type": "身障機構", "sub_type": "社區日間作業設施", "name": "北投工坊", "address": "臺北市北投區石牌路二段99巷9號四樓" }, "geometry": { "type": "Point", "coordinates": [ 121.5166, 25.1179 ] } },
{ "type": "Feature", "properties": { "main_type": "身障機構", "sub_type": "社區日間作業設施", "name": "肯納行義坊", "address": "臺北市北投區行義路129號" }, "geometry": { "type": "Point", "coordinates": [ 121.5283, 25.1288 ] } },
{ "type": "Feature", "properties": { "main_type": "身障機構", "sub_type": "社區日間作業設施", "name": "聖文生樂活工坊", "address": "臺北市北投區石牌路二段90巷20號2樓" }, "geometry": { "type": "Point", "coordinates": [ 121.5174, 25.117 ] } },
{ "type": "Feature", "properties": { "main_type": "身障機構", "sub_type": "社區日間作業設施", "name": "健康工坊_A處", "address": "臺北市松山區健康路399號6樓" }, "geometry": { "type": "Point", "coordinates": [ 121.5689, 25.0546 ] } },
{ "type": "Feature", "properties": { "main_type": "身障機構", "sub_type": "社區日間作業設施", "name": "星扶工坊", "address": "臺北市松山區八德路四段306號四樓" }, "geometry": { "type": "Point", "coordinates": [ 121.5674, 25.049 ] } },
{ "type": "Feature", "properties": { "main_type": "身障機構", "sub_type": "社區日間作業設施", "name": "信義工坊", "address": "臺北市信義區信義路五段15號三樓" }, "geometry": { "type": "Point", "coordinates": [ 121.5669, 25.0331 ] } },
{ "type": "Feature", "properties": { "main_type": "身障機構", "sub_type": "社區日間作業設施", "name": "心朋友工作坊", "address": "臺北市信義區和平東路三段391巷20弄16號" }, "geometry": { "type": "Point", "coordinates": [ 121.5582, 25.0208 ] } },
{ "type": "Feature", "properties": { "main_type": "身障機構", "sub_type": "社區日間作業設施", "name": "台北工坊", "address": "臺北市信義區信義路四段415號七樓" }, "geometry": { "type": "Point", "coordinates": [ 121.5592, 25.0333 ] } },
{ "type": "Feature", "properties": { "main_type": "身障機構", "sub_type": "社區日間作業設施", "name": "南港工坊(舊址，已停辦)", "address": "臺北市南港區南港路一段173號五樓" }, "geometry": { "type": "Point", "coordinates": [ 121.613, 25.0552 ] } },
{ "type": "Feature", "properties": { "main_type": "身障機構", "sub_type": "社區日間作業設施", "name": "萬華視障生活重建中心暨社區工坊", "address": "臺北市萬華區0鄰梧州街36號4樓" }, "geometry": { "type": "Point", "coordinates": [ 121.4975, 25.0374 ] } },
{ "type": "Feature", "properties": { "main_type": "身障機構", "sub_type": "社區日間作業設施", "name": "委託經營管理身心障礙者社區日間作業設施-瑞光工坊", "address": "臺北市內湖區瑞光路162號2樓之2" }, "geometry": { "type": "Point", "coordinates": [ 121.5793, 25.0734 ] } },
{ "type": "Feature", "properties": { "main_type": "身障機構", "sub_type": "社區日間作業設施", "name": "委託經營管理身心障礙者社區日間作業設施-明倫工坊", "address": "臺北市大同區承德路三段285之5號" }, "geometry": { "type": "Point", "coordinates": [ 121.5194, 25.0731 ] } },
{ "type": "Feature", "properties": { "main_type": "身障機構", "sub_type": "社區日間作業設施", "name": "南港工坊", "address": "臺北市南港區八德路四段768-1號" }, "geometry": { "type": "Point", "coordinates": [ 121.58, 25.0503 ] } },
{ "type": "Feature", "properties": { "main_type": "身障機構", "sub_type": "社區日間作業設施", "name": "南港工坊", "address": "臺北市南港區八德路四段768-1號" }, "geometry": { "type": "Point", "coordinates": [ 121.58, 25.0503 ] } },
{ "type": "Feature", "properties": { "main_type": "身障機構", "sub_type": "社區日間作業設施", "name": "健康工坊_B處", "address": "臺北市松山區健康路399號6樓" }, "geometry": { "type": "Point", "coordinates": [ 121.5689, 25.0546 ] } },
{ "type": "Feature", "properties": { "main_type": "身障機構", "sub_type": "社區日間作業設施", "name": "士林工坊", "address": "臺北市士林區忠誠路二段53巷7號9樓A" }, "geometry": { "type": "Point", "coordinates": [ 121.5324, 25.1114 ] } },
{ "type": "Feature", "properties": { "main_type": "身障機構", "sub_type": "社區日間作業設施", "name": "奇岩工坊", "address": "臺北市北投區三合街一段119號7樓" }, "geometry": { "type": "Point", "coordinates": [ 121.5039, 25.1266 ] } },
{ "type": "Feature", "properties": { "main_type": "身障機構", "sub_type": "社區日間作業設施", "name": "奇岩工坊", "address": "臺北市北投區三合街一段119號7樓" }, "geometry": { "type": "Point", "coordinates": [ 121.5039, 25.1266 ] } },
{ "type": "Feature", "properties": { "main_type": "身障機構", "sub_type": "身障社區長照機構（日間照顧）", "name": "財團法人廣青文教基金會附設臺北市私立士林身障社區長照機構(日間照顧)", "address": "臺北市士林區後港街189號一樓" }, "geometry": { "type": "Point", "coordinates": [ 121.521, 25.088 ] } },
{ "type": "Feature", "properties": { "main_type": "身障機構", "sub_type": "身障社區長照機構（日間照顧）", "name": "臺北市政府社會局委託財團法人喜憨兒社會福利基金會經營管理中山身障社區長照機構（日間照顧）", "address": "臺北市中山區長安西路5弄2號四樓" }, "geometry": { "type": "Point", "coordinates": [ 121.5208, 25.0505 ] } },
{ "type": "Feature", "properties": { "main_type": "身障機構", "sub_type": "身障社區長照機構（日間照顧）", "name": "臺北市政府社會局委託財團法人天主教白永恩神父社會福利基金會經營管理稻香身障社區長照機構（日間照顧）", "address": "臺北市北投區稻香里0鄰稻香路81號3樓之1" }, "geometry": { "type": "Point", "coordinates": [ 121.4894, 25.1409 ] } },
{ "type": "Feature", "properties": { "main_type": "身障機構", "sub_type": "身障社區長照機構（日間照顧）", "name": "臺北市政府社會局委託財團法人喜憨兒社會福利基金會經營管理中山身障社區長照機構（日間照顧）", "address": "臺北市中山區長安西路5弄2號四樓" }, "geometry": { "type": "Point", "coordinates": [ 121.5213, 25.0498 ] } },
{ "type": "Feature", "properties": { "main_type": "身障機構", "sub_type": "身障社區長照機構（日間照顧）", "name": "臺北市政府社會局委託財團法人伊甸社會福利基金會經營管理臺北市民生身障社區長照機構（日間照顧）", "address": "臺北市松山區民生東路五段163之1號七樓" }, "geometry": { "type": "Point", "coordinates": [ 121.5626, 25.0591 ] } },
{ "type": "Feature", "properties": { "main_type": "身障機構", "sub_type": "身障社區長照機構（日間照顧）", "name": "財團法人喜憨兒社會福利基金會附設臺北市私立松山身障社區長照機構(日間照顧)", "address": "臺北市松山區南京東路五段356號六樓之2" }, "geometry": { "type": "Point", "coordinates": [ 121.5697, 25.0511 ] } },
{ "type": "Feature", "properties": { "main_type": "身障機構", "sub_type": "身障社區長照機構（日間照顧）", "name": "臺北市政府社會局委託財團法人中華民國唐氏症基金會經營管理信義身障社區長照機構（日間照顧）", "address": "臺北市信義區信義路五段15號五樓" }, "geometry": { "type": "Point", "coordinates": [ 121.5669, 25.0331 ] } },
{ "type": "Feature", "properties": { "main_type": "身障機構", "sub_type": "身障社區長照機構（日間照顧）", "name": "臺北市政府社會局委託財團法人臺北市喜樂家族社會福利基金會經營管理大龍峒身障社區長照機構（日間照顧）", "address": "臺北市大同區老師里0鄰重慶北路三段320號3、4樓（社福大樓）" }, "geometry": { "type": "Point", "coordinates": [ 121.5136, 25.0747 ] } },
{ "type": "Feature", "properties": { "main_type": "身障機構", "sub_type": "身障社區長照機構（日間照顧）", "name": "臺北市政府社會局委託財團法人中華民國唐氏症基金會經營管理景新身障社區長照機構（日間照顧）", "address": "臺北市文山區景行里景後街151號4樓" }, "geometry": { "type": "Point", "coordinates": [ 121.5419, 24.99 ] } },
{ "type": "Feature", "properties": { "main_type": "身障機構", "sub_type": "精神障礙者會所", "name": "興隆會所", "address": "臺北市文山區木柵路二段138巷33號1樓" }, "geometry": { "type": "Point", "coordinates": [ 121.5623, 24.988 ] } },
{ "type": "Feature", "properties": { "main_type": "身障機構", "sub_type": "精神障礙者會所", "name": "興隆會所", "address": "臺北市文山區木柵路二段138巷33號1樓" }, "geometry": { "type": "Point", "coordinates": [ 121.5623, 24.988 ] } },
{ "type": "Feature", "properties": { "main_type": "身障機構", "sub_type": "精神障礙者會所", "name": "真福之家_方案委託", "address": "臺北市松山區敦化北路145巷10之2號1樓" }, "geometry": { "type": "Point", "coordinates": [ 121.5502, 25.0539 ] } },
{ "type": "Feature", "properties": { "main_type": "身障機構", "sub_type": "精神障礙者會所", "name": "向陽會所", "address": "臺北市萬華區青年路152巷20號、22號1樓" }, "geometry": { "type": "Point", "coordinates": [ 121.5018, 25.021 ] } },
{ "type": "Feature", "properties": { "main_type": "身障機構", "sub_type": "精神障礙者會所", "name": "星辰會所", "address": "臺北市士林區三玉里忠誠路二段53巷7號9樓" }, "geometry": { "type": "Point", "coordinates": [ 121.5324, 25.1114 ] } },
{ "type": "Feature", "properties": { "main_type": "身障機構", "sub_type": "精神障礙者會所", "name": "臺北市精神障礙者會所-向陽會所", "address": "臺北市萬華區日祥里1鄰青年路152巷2號" }, "geometry": { "type": "Point", "coordinates": [ 121.5022, 25.0213 ] } },
{ "type": "Feature", "properties": { "main_type": "身障機構", "sub_type": "精神障礙者會所", "name": "真福之家_公辦民營", "address": "臺北市大同區承德路二段33號3樓" }, "geometry": { "type": "Point", "coordinates": [ 121.5184, 25.0546 ] } },
{ "type": "Feature", "properties": { "main_type": "身障機構", "sub_type": "身心障礙者資源中心", "name": "臺北市士林、北投區身心障礙者資源中心", "address": "臺北市北投區奇岩里0鄰三合街一段119號7樓" }, "geometry": { "type": "Point", "coordinates": [ 121.5039, 25.1266 ] } },
{ "type": "Feature", "properties": { "main_type": "身障機構", "sub_type": "身心障礙者資源中心", "name": "臺北市士林、北投區身心障礙者資源中心", "address": "臺北市北投區奇岩里0鄰三合街一段119號7樓" }, "geometry": { "type": "Point", "coordinates": [ 121.5039, 25.1266 ] } },
{ "type": "Feature", "properties": { "main_type": "身障機構", "sub_type": "身心障礙者資源中心", "name": "臺北市大同、中山區身心障礙者資源中心", "address": "臺北市中山區長安西路5巷2號" }, "geometry": { "type": "Point", "coordinates": [ 121.5208, 25.0505 ] } },
{ "type": "Feature", "properties": { "main_type": "身障機構", "sub_type": "身心障礙者資源中心", "name": "臺北市中正、萬華區身心障礙者資源中心", "address": "臺北市中正區南門里延平南路207號3樓" }, "geometry": { "type": "Point", "coordinates": [ 121.5077, 25.0329 ] } },
{ "type": "Feature", "properties": { "main_type": "身障機構", "sub_type": "身心障礙者資源中心", "name": "臺北市中正、萬華區身心障礙者資源中心", "address": "臺北市中正區南門里延平南路207號3樓" }, "geometry": { "type": "Point", "coordinates": [ 121.5077, 25.0329 ] } },
{ "type": "Feature", "properties": { "main_type": "身障機構", "sub_type": "身心障礙者資源中心", "name": "大安、文山區身心障礙者資源中心", "address": "臺北市文山區辛亥路五段94號一樓" }, "geometry": { "type": "Point", "coordinates": [ 121.5531, 24.9984 ] } },
{ "type": "Feature", "properties": { "main_type": "身障機構", "sub_type": "身心障礙者資源中心", "name": "臺北市內湖、松山區身心障礙者資源中心", "address": "臺北市內湖區瑞光路162號2樓之3" }, "geometry": { "type": "Point", "coordinates": [ 121.5793, 25.0734 ] } },
{ "type": "Feature", "properties": { "main_type": "身障機構", "sub_type": "身心障礙者資源中心", "name": "臺北市內湖、松山區身心障礙者資源中心", "address": "臺北市內湖區瑞光路162號2樓之3" }, "geometry": { "type": "Point", "coordinates": [ 121.5793, 25.0734 ] } },
{ "type": "Feature", "properties": { "main_type": "身障機構", "sub_type": "身心障礙者資源中心", "name": "臺北市信義、南港區身心障礙者資源中心", "address": "臺北市信義區廣居里3鄰忠孝東路五段242號7樓" }, "geometry": { "type": "Point", "coordinates": [ 121.5723, 25.0408 ] } },
{ "type": "Feature", "properties": { "main_type": "身障機構", "sub_type": "福利服務中心", "name": "臺北市私立活泉之家", "address": "臺北市文山區萬美街一段55號三樓" }, "geometry": { "type": "Point", "coordinates": [ 121.5681, 25.0023 ] } },
{ "type": "Feature", "properties": { "main_type": "身障機構", "sub_type": "福利服務中心", "name": "臺北市身心障礙者自立生活支持服務中心", "address": "臺北市大同區重慶北路三段347號3樓之2" }, "geometry": { "type": "Point", "coordinates": [ 121.5141, 25.0748 ] } },
{ "type": "Feature", "properties": { "main_type": "身障機構", "sub_type": "福利服務中心", "name": "臺北市身心障礙者自立生活支持服務中心", "address": "臺北市大同區重慶北路三段347號3樓之2" }, "geometry": { "type": "Point", "coordinates": [ 121.5141, 25.0748 ] } },
{ "type": "Feature", "properties": { "main_type": "身障機構", "sub_type": "福利服務中心", "name": "臺北市私立八德服務中心", "address": "臺北市松山區八德路三段155巷4弄35號" }, "geometry": { "type": "Point", "coordinates": [ 121.5556, 25.0489 ] } },
{ "type": "Feature", "properties": { "main_type": "身障機構", "sub_type": "輔具服務中心", "name": "臺北市合宜輔具中心(財團法人第一社會福利基金會承辦)", "address": "臺北市中山區玉門街1號" }, "geometry": { "type": "Point", "coordinates": [ 121.5205, 25.0704 ] } },
{ "type": "Feature", "properties": { "main_type": "身障機構", "sub_type": "輔具服務中心", "name": "臺北市西區輔具中心 (財團法人伊甸社會福利基金會承辦)", "address": "臺北市中山區長安西路2號5巷2號2樓" }, "geometry": { "type": "Point", "coordinates": [ 121.5208, 25.0505 ] } },
{ "type": "Feature", "properties": { "main_type": "身障機構", "sub_type": "輔具服務中心", "name": "臺北市西區輔具中心 (財團法人伊甸社會福利基金會承辦)", "address": "臺北市中山區長安西路2號5巷2號2樓" }, "geometry": { "type": "Point", "coordinates": [ 121.5203, 25.0498 ] } },
{ "type": "Feature", "properties": { "main_type": "身障機構", "sub_type": "輔具服務中心", "name": "臺北市南區輔具中心 (財團法人第一社會福利基金會承辦)", "address": "臺北市信義區信義路五段150巷310號" }, "geometry": { "type": "Point", "coordinates": [ 121.5695, 25.027 ] } },
{ "type": "Feature", "properties": { "main_type": "身障機構", "sub_type": "身心障礙者社區日間活動據點", "name": "中華民國腦性麻痺協會", "address": "臺北市北投區大業路166號5樓" }, "geometry": { "type": "Point", "coordinates": [ 121.4991, 25.1253 ] } },
{ "type": "Feature", "properties": { "main_type": "身障機構", "sub_type": "身心障礙者社區日間活動據點", "name": "社團法人台北生命勵樂活輔健會", "address": "臺北市松山區塔悠路臺北市觀山自行車租借站（塔悠路與民權東路交叉口，民權高架橋下，基六號疏散門進入，左轉直走往大直橋方向，約250公尺之高速公路橋下方彩色貨櫃屋）" }, "geometry": { "type": "Point", "coordinates": [ 121.5683, 25.0619 ] } },
{ "type": "Feature", "properties": { "main_type": "身障機構", "sub_type": "身心障礙者社區日間活動據點", "name": "台北市康復之友協會", "address": "臺北市松山區八德路四段604號2樓之3" }, "geometry": { "type": "Point", "coordinates": [ 121.5727, 25.0498 ] } },
{ "type": "Feature", "properties": { "main_type": "身障機構", "sub_type": "身心障礙者社區日間活動據點", "name": "財團法人伊甸社會福利基金會(附設台北市私立恩望身心障礙者人力資源服務中心)", "address": "臺北市南港區忠孝東路六段85號3樓" }, "geometry": { "type": "Point", "coordinates": [ 121.5847, 25.0482 ] } },
{ "type": "Feature", "properties": { "main_type": "身障機構", "sub_type": "身心障礙者社區日間活動據點", "name": "社團法人臺北市視障者家長協會", "address": "臺北市松山區敦化北路155巷76號4樓" }, "geometry": { "type": "Point", "coordinates": [ 121.5515, 25.0543 ] } },
{ "type": "Feature", "properties": { "main_type": "身障機構", "sub_type": "身心障礙者社區日間活動據點", "name": "台北市瞽者福利協進會", "address": "臺北市萬華區廣州街152巷10號3樓(新富民區民活動中心)" }, "geometry": { "type": "Point", "coordinates": [ 121.5005, 25.0362 ] } },
{ "type": "Feature", "properties": { "main_type": "身障機構", "sub_type": "身心障礙者社區日間活動據點", "name": "財團法人台北市私立雙連視障關懷基金會", "address": "臺北市中山區中山北路二段111號11樓" }, "geometry": { "type": "Point", "coordinates": [ 121.5232, 25.0601 ] } },
{ "type": "Feature", "properties": { "main_type": "身障機構", "sub_type": "身心障礙者社區日間活動據點", "name": "財團法人喜憨兒社會福利基金會", "address": "臺北市松山區民生東路五段163-1號7樓" }, "geometry": { "type": "Point", "coordinates": [ 121.5626, 25.0591 ] } },
{ "type": "Feature", "properties": { "main_type": "身障機構", "sub_type": "身心障礙者社區日間活動據點", "name": "財團法人中華民國自閉症基金會", "address": "臺北市士林區中山北路五段841號4樓之2" }, "geometry": { "type": "Point", "coordinates": [ 121.5253, 25.1022 ] } },
{ "type": "Feature", "properties": { "main_type": "身障機構", "sub_type": "身心障礙者社區日間活動據點", "name": "中華視障人福利協會", "address": "臺北市中山區撫順街6號6樓" }, "geometry": { "type": "Point", "coordinates": [ 121.5216, 25.0637 ] } },
{ "type": "Feature", "properties": { "main_type": "身障機構", "sub_type": "身心障礙者社區日間活動據點", "name": "財團法人心路社會福利基金會", "address": "臺北市文山區萬和街8號1樓(臺北社區生活支持中心)" }, "geometry": { "type": "Point", "coordinates": [ 121.5677, 25.002 ] } },
{ "type": "Feature", "properties": { "main_type": "身障機構", "sub_type": "共融式遊戲場", "name": "明水公園", "address": "臺北市中山區北安路538巷1弄" }, "geometry": { "type": "Point", "coordinates": [ 121.5483, 25.08 ] } },
{ "type": "Feature", "properties": { "main_type": "身障機構", "sub_type": "共融式遊戲場", "name": "福志公園", "address": "臺北市士林區福林路251巷4弄" }, "geometry": { "type": "Point", "coordinates": [ 121.5347, 25.0985 ] } },
{ "type": "Feature", "properties": { "main_type": "身障機構", "sub_type": "共融式遊戲場", "name": "福志公園", "address": "臺北市士林區福林路251巷4弄" }, "geometry": { "type": "Point", "coordinates": [ 121.5347, 25.0985 ] } },
{ "type": "Feature", "properties": { "main_type": "身障機構", "sub_type": "共融式遊戲場", "name": "士林4號廣場", "address": "臺北市士林區福林路與雨農路交叉口" }, "geometry": { "type": "Point", "coordinates": [ 121.5303, 25.0946 ] } },
{ "type": "Feature", "properties": { "main_type": "身障機構", "sub_type": "共融式遊戲場", "name": "士林4號廣場", "address": "臺北市士林區福林路與雨農路交叉口" }, "geometry": { "type": "Point", "coordinates": [ 121.5303, 25.0946 ] } },
{ "type": "Feature", "properties": { "main_type": "身障機構", "sub_type": "共融式遊戲場", "name": "兒童新樂園(機械式)", "address": "臺北市士林區承德路五段55號" }, "geometry": { "type": "Point", "coordinates": [ 121.5142, 25.0968 ] } },
{ "type": "Feature", "properties": { "main_type": "身障機構", "sub_type": "共融式遊戲場", "name": "永盛公園", "address": "臺北市中山區中山北路二段93巷26,40號間" }, "geometry": { "type": "Point", "coordinates": [ 121.5243, 25.0592 ] } },
{ "type": "Feature", "properties": { "main_type": "身障機構", "sub_type": "共融式遊戲場", "name": "大佳河濱公園", "address": "臺北市中山區濱江街　" }, "geometry": { "type": "Point", "coordinates": [ 121.5304, 25.0718 ] } },
{ "type": "Feature", "properties": { "main_type": "身障機構", "sub_type": "共融式遊戲場", "name": "中安公園", "address": "臺北市中山區中山北路二段65巷2弄內" }, "geometry": { "type": "Point", "coordinates": [ 121.5239, 25.0568 ] } },
{ "type": "Feature", "properties": { "main_type": "身障機構", "sub_type": "共融式遊戲場", "name": "花博公園美術園區", "address": "臺北市中山區民族東路以北中山北路以東(原民族公園)" }, "geometry": { "type": "Point", "coordinates": [ 121.5234, 25.0683 ] } },
{ "type": "Feature", "properties": { "main_type": "身障機構", "sub_type": "共融式遊戲場", "name": "花博公園美術園區", "address": "臺北市中山區民族東路以北中山北路以東(原民族公園)" }, "geometry": { "type": "Point", "coordinates": [ 121.5234, 25.0683 ] } },
{ "type": "Feature", "properties": { "main_type": "身障機構", "sub_type": "共融式遊戲場", "name": "石潭公園", "address": "臺北市內湖區成功路二段東側" }, "geometry": { "type": "Point", "coordinates": [ 121.5913, 25.0602 ] } },
{ "type": "Feature", "properties": { "main_type": "身障機構", "sub_type": "共融式遊戲場", "name": "大港墘公園", "address": "臺北市內湖區瑞光路393巷旁" }, "geometry": { "type": "Point", "coordinates": [ 121.573, 25.0787 ] } },
{ "type": "Feature", "properties": { "main_type": "身障機構", "sub_type": "共融式遊戲場", "name": "碧湖公園", "address": "臺北市內湖區內湖路二段175號，國立臺灣戲曲學院旁" }, "geometry": { "type": "Point", "coordinates": [ 121.5858, 25.0812 ] } },
{ "type": "Feature", "properties": { "main_type": "身障機構", "sub_type": "共融式遊戲場", "name": "碧湖公園", "address": "臺北市內湖區內湖路二段175號，國立臺灣戲曲學院旁" }, "geometry": { "type": "Point", "coordinates": [ 121.5858, 25.0812 ] } },
{ "type": "Feature", "properties": { "main_type": "身障機構", "sub_type": "共融式遊戲場", "name": "潭美國小", "address": "臺北市內湖區新明路22號" }, "geometry": { "type": "Point", "coordinates": [ 121.5908, 25.061 ] } },
{ "type": "Feature", "properties": { "main_type": "身障機構", "sub_type": "共融式遊戲場", "name": "兒童新樂園(非機械式)", "address": "臺北市士林區承德路五段55號" }, "geometry": { "type": "Point", "coordinates": [ 121.5142, 25.0968 ] } },
{ "type": "Feature", "properties": { "main_type": "身障機構", "sub_type": "共融式遊戲場", "name": "萬芳4號公園", "address": "臺北市文山區萬和街1號對面" }, "geometry": { "type": "Point", "coordinates": [ 121.5676, 25.0013 ] } },
{ "type": "Feature", "properties": { "main_type": "身障機構", "sub_type": "共融式遊戲場", "name": "樹德公園", "address": "臺北市大同區大龍街129號" }, "geometry": { "type": "Point", "coordinates": [ 121.5161, 25.0672 ] } },
{ "type": "Feature", "properties": { "main_type": "身障機構", "sub_type": "共融式遊戲場", "name": "樹德公園", "address": "臺北市大同區大龍街129號" }, "geometry": { "type": "Point", "coordinates": [ 121.5161, 25.0672 ] } },
{ "type": "Feature", "properties": { "main_type": "身障機構", "sub_type": "共融式遊戲場", "name": "景化公園", "address": "臺北市大同區伊寧街9巷(景化街巷弄中)" }, "geometry": { "type": "Point", "coordinates": [ 121.5131, 25.0651 ] } },
{ "type": "Feature", "properties": { "main_type": "身障機構", "sub_type": "共融式遊戲場", "name": "朝陽公園", "address": "臺北市大同區重慶北路二段64巷口" }, "geometry": { "type": "Point", "coordinates": [ 121.513, 25.0557 ] } },
{ "type": "Feature", "properties": { "main_type": "身障機構", "sub_type": "共融式遊戲場", "name": "建成公園", "address": "臺北市大同區承德路二段臺北市大同區承德路二段35號旁" }, "geometry": { "type": "Point", "coordinates": [ 121.5184, 25.0548 ] } },
{ "type": "Feature", "properties": { "main_type": "身障機構", "sub_type": "共融式遊戲場", "name": "建成公園", "address": "臺北市大同區承德路二段臺北市大同區承德路二段35號旁" }, "geometry": { "type": "Point", "coordinates": [ 121.5184, 25.0548 ] } },
{ "type": "Feature", "properties": { "main_type": "身障機構", "sub_type": "共融式遊戲場", "name": "大安國小", "address": "臺北市大安區臥龍街129號" }, "geometry": { "type": "Point", "coordinates": [ 121.5496, 25.0195 ] } },
{ "type": "Feature", "properties": { "main_type": "身障機構", "sub_type": "共融式遊戲場", "name": "和平實驗小學", "address": "臺北市大安區敦南街76巷28號" }, "geometry": { "type": "Point", "coordinates": [ 121.5467, 25.0207 ] } },
{ "type": "Feature", "properties": { "main_type": "身障機構", "sub_type": "共融式遊戲場", "name": "和平實驗小學", "address": "臺北市大安區敦南街76巷28號" }, "geometry": { "type": "Point", "coordinates": [ 121.5467, 25.0207 ] } },
{ "type": "Feature", "properties": { "main_type": "身障機構", "sub_type": "共融式遊戲場", "name": "建安國小", "address": "臺北市大安區大安路二段99號" }, "geometry": { "type": "Point", "coordinates": [ 121.5462, 25.0294 ] } },
{ "type": "Feature", "properties": { "main_type": "身障機構", "sub_type": "共融式遊戲場", "name": "古亭國小", "address": "臺北市大安區羅斯福路三段201號" }, "geometry": { "type": "Point", "coordinates": [ 121.5285, 25.0207 ] } },
{ "type": "Feature", "properties": { "main_type": "身障機構", "sub_type": "共融式遊戲場", "name": "興隆公園", "address": "臺北市文山區興隆路二段154巷與仙岩路交口" }, "geometry": { "type": "Point", "coordinates": [ 121.5517, 25.001 ] } },
{ "type": "Feature", "properties": { "main_type": "身障機構", "sub_type": "共融式遊戲場", "name": "興隆公園", "address": "臺北市文山區興隆路二段154巷與仙岩路交口" }, "geometry": { "type": "Point", "coordinates": [ 121.5517, 25.001 ] } },
{ "type": "Feature", "properties": { "main_type": "身障機構", "sub_type": "共融式遊戲場", "name": "景華公園", "address": "臺北市文山區景興路與景華街交口" }, "geometry": { "type": "Point", "coordinates": [ 121.5449, 24.9985 ] } },
{ "type": "Feature", "properties": { "main_type": "身障機構", "sub_type": "共融式遊戲場", "name": "景華公園", "address": "臺北市文山區景興路與景華街交口" }, "geometry": { "type": "Point", "coordinates": [ 121.5449, 24.9985 ] } },
{ "type": "Feature", "properties": { "main_type": "身障機構", "sub_type": "共融式遊戲場", "name": "道南河濱公園", "address": "臺北市文山區恆光街景美恆光橋下游右側" }, "geometry": { "type": "Point", "coordinates": [ 121.5667, 24.9836 ] } },
{ "type": "Feature", "properties": { "main_type": "身障機構", "sub_type": "共融式遊戲場", "name": "榮華公園", "address": "臺北市北投區明德路150巷17-1號" }, "geometry": { "type": "Point", "coordinates": [ 121.5215, 25.1107 ] } },
{ "type": "Feature", "properties": { "main_type": "身障機構", "sub_type": "共融式遊戲場", "name": "石牌公園", "address": "臺北市北投區石牌路一段39巷內" }, "geometry": { "type": "Point", "coordinates": [ 121.5099, 25.1185 ] } },
{ "type": "Feature", "properties": { "main_type": "身障機構", "sub_type": "共融式遊戲場", "name": "立農公園", "address": "臺北市北投區承德路七段與吉利街口" }, "geometry": { "type": "Point", "coordinates": [ 121.5107, 25.1106 ] } },
{ "type": "Feature", "properties": { "main_type": "身障機構", "sub_type": "共融式遊戲場", "name": "立農公園", "address": "臺北市北投區承德路七段與吉利街口" }, "geometry": { "type": "Point", "coordinates": [ 121.5107, 25.1104 ] } },
{ "type": "Feature", "properties": { "main_type": "身障機構", "sub_type": "共融式遊戲場", "name": "磺港公園", "address": "臺北市北投區磺港路與大興街交叉口" }, "geometry": { "type": "Point", "coordinates": [ 121.502, 25.1333 ] } },
{ "type": "Feature", "properties": { "main_type": "身障機構", "sub_type": "共融式遊戲場", "name": "磺港公園", "address": "臺北市北投區磺港路與大興街交叉口" }, "geometry": { "type": "Point", "coordinates": [ 121.502, 25.1333 ] } },
{ "type": "Feature", "properties": { "main_type": "身障機構", "sub_type": "共融式遊戲場", "name": "文林國小", "address": "臺北市北投區文林北路155號" }, "geometry": { "type": "Point", "coordinates": [ 121.5147, 25.1059 ] } },
{ "type": "Feature", "properties": { "main_type": "身障機構", "sub_type": "共融式遊戲場", "name": "榮富公園", "address": "臺北市北投區榮華三路及磺溪旁(過天母橋)" }, "geometry": { "type": "Point", "coordinates": [ 121.5215, 25.1138 ] } },
{ "type": "Feature", "properties": { "main_type": "身障機構", "sub_type": "共融式遊戲場", "name": "三民公園", "address": "臺北市松山區三民路、撫遠街298號" }, "geometry": { "type": "Point", "coordinates": [ 121.564, 25.0533 ] } },
{ "type": "Feature", "properties": { "main_type": "身障機構", "sub_type": "共融式遊戲場", "name": "眷村文化公園", "address": "臺北市信義區莊敬路與松勤路交口,信義國小西側" }, "geometry": { "type": "Point", "coordinates": [ 121.5611, 25.0323 ] } },
{ "type": "Feature", "properties": { "main_type": "身障機構", "sub_type": "共融式遊戲場", "name": "眷村文化公園", "address": "臺北市信義區莊敬路與松勤路交口,信義國小西側" }, "geometry": { "type": "Point", "coordinates": [ 121.5611, 25.0323 ] } },
{ "type": "Feature", "properties": { "main_type": "身障機構", "sub_type": "共融式遊戲場", "name": "象山公園", "address": "臺北市信義區信義路五段150巷旁" }, "geometry": { "type": "Point", "coordinates": [ 121.5703, 25.0256 ] } },
{ "type": "Feature", "properties": { "main_type": "身障機構", "sub_type": "共融式遊戲場", "name": "聯成公園", "address": "臺北市南港區忠孝東路六段250巷1弄" }, "geometry": { "type": "Point", "coordinates": [ 121.589, 25.0484 ] } },
{ "type": "Feature", "properties": { "main_type": "身障機構", "sub_type": "共融式遊戲場", "name": "玉成公園", "address": "臺北市南港區中坡南路55號" }, "geometry": { "type": "Point", "coordinates": [ 121.5858, 25.0419 ] } },
{ "type": "Feature", "properties": { "main_type": "身障機構", "sub_type": "共融式遊戲場", "name": "四分綠地", "address": "臺北市南港區研究院路二段182巷58弄旁" }, "geometry": { "type": "Point", "coordinates": [ 121.6146, 25.0367 ] } },
{ "type": "Feature", "properties": { "main_type": "身障機構", "sub_type": "共融式遊戲場", "name": "中研公園", "address": "臺北市南港區研究院路二段12巷58弄" }, "geometry": { "type": "Point", "coordinates": [ 121.6139, 25.0471 ] } },
{ "type": "Feature", "properties": { "main_type": "身障機構", "sub_type": "共融式遊戲場", "name": "山水綠生態公園", "address": "臺北市南港區南深路37號" }, "geometry": { "type": "Point", "coordinates": [ 121.6204, 25.0365 ] } },
{ "type": "Feature", "properties": { "main_type": "身障機構", "sub_type": "共融式遊戲場", "name": "山水綠生態公園", "address": "臺北市南港區南深路37號" }, "geometry": { "type": "Point", "coordinates": [ 121.6204, 25.0365 ] } },
{ "type": "Feature", "properties": { "main_type": "身障機構", "sub_type": "共融式遊戲場", "name": "和平青草公園", "address": "臺北市萬華區艋舺大道與號西園路二段交叉口" }, "geometry": { "type": "Point", "coordinates": [ 121.5052, 25.0345 ] } },
{ "type": "Feature", "properties": { "main_type": "身障機構", "sub_type": "共融式遊戲場", "name": "和平青草公園", "address": "臺北市萬華區艋舺大道與號西園路二段交叉口" }, "geometry": { "type": "Point", "coordinates": [ 121.5052, 25.0345 ] } },
{ "type": "Feature", "properties": { "main_type": "兒童與少年服務", "sub_type": "兒童及少年安置機構", "name": "財團法人基督教臺北市私立伯大尼兒少家園", "address": "臺北市文山區保儀路129號" }, "geometry": { "type": "Point", "coordinates": [ 121.5671, 24.985 ] } },
{ "type": "Feature", "properties": { "main_type": "兒童與少年服務", "sub_type": "兒童及少年安置機構", "name": "財團法人台灣關愛基金會附設台北市私立關愛之子家園", "address": "臺北市南港區南港路一段173號4樓" }, "geometry": { "type": "Point", "coordinates": [ 121.613, 25.0552 ] } },
{ "type": "Feature", "properties": { "main_type": "兒童與少年服務", "sub_type": "兒童及少年安置機構", "name": "臺北市向晴家園", "address": "臺北市文山區順興里003鄰興隆路四段145巷9弄15號" }, "geometry": { "type": "Point", "coordinates": [ 121.5618, 24.9858 ] } },
{ "type": "Feature", "properties": { "main_type": "兒童與少年服務", "sub_type": "兒童及少年安置機構", "name": "臺北市綠洲家園", "address": "新北市深坑區北深路２段155號" }, "geometry": { "type": "Point", "coordinates": [ 121.6141, 25.0021 ] } },
{ "type": "Feature", "properties": { "main_type": "兒童與少年服務", "sub_type": "兒童及少年安置機構", "name": "臺北市培立家園", "address": "臺北市北投區中和街399-8號" }, "geometry": { "type": "Point", "coordinates": [ 121.4984, 25.1427 ] } },
{ "type": "Feature", "properties": { "main_type": "兒童與少年服務", "sub_type": "兒童及少年安置機構", "name": "臺北市希望家園", "address": "臺北市中山區松江路362巷22號" }, "geometry": { "type": "Point", "coordinates": [ 121.5322, 25.0619 ] } },
{ "type": "Feature", "properties": { "main_type": "兒童與少年服務", "sub_type": "兒童及少年安置機構", "name": "財團法人台北市私立體惠育幼院", "address": "臺北市士林區中山北路七段141巷43號" }, "geometry": { "type": "Point", "coordinates": [ 121.5302, 25.1245 ] } },
{ "type": "Feature", "properties": { "main_type": "兒童與少年服務", "sub_type": "兒童及少年安置機構", "name": "財團法人台北市愛慈社會福利基金會附設恩典之家寶寶照護中心", "address": "臺北市中正區公園路20巷12號4樓" }, "geometry": { "type": "Point", "coordinates": [ 121.5166, 25.0451 ] } },
{ "type": "Feature", "properties": { "main_type": "兒童與少年服務", "sub_type": "兒童及少年安置機構", "name": "臺北市私立義光育幼院", "address": "臺北市萬華區和平西路三段382巷11弄17號" }, "geometry": { "type": "Point", "coordinates": [ 121.4921, 25.0346 ] } },
{ "type": "Feature", "properties": { "main_type": "兒童與少年服務", "sub_type": "兒童及少年安置機構", "name": "財團法人台北市私立非拉鐵非兒少之家", "address": "臺北市士林區愛富二街7號" }, "geometry": { "type": "Point", "coordinates": [ 121.5444, 25.1386 ] } },
{ "type": "Feature", "properties": { "main_type": "兒童與少年服務", "sub_type": "兒童及少年安置機構", "name": "財團法人忠義社會福利事業基金會附設台北市私立忠義育幼院", "address": "臺北市文山區景興路85巷12號" }, "geometry": { "type": "Point", "coordinates": [ 121.5456, 24.9962 ] } },
{ "type": "Feature", "properties": { "main_type": "兒童與少年服務", "sub_type": "兒童及少年安置機構", "name": "財團法人基督教聖道兒少福利基金會附屬台北市私立聖道兒童之家", "address": "臺北市北投區承德路七段388號1樓" }, "geometry": { "type": "Point", "coordinates": [ 121.5021, 25.1196 ] } },
{ "type": "Feature", "properties": { "main_type": "兒童與少年服務", "sub_type": "兒童及少年安置機構", "name": "臺北市選擇家園(臺北市少年緊急短期安置庇護家園)", "address": "臺北市內湖區康樂街16號(內湖東湖郵局第6-151號信箱)" }, "geometry": { "type": "Point", "coordinates": [ 121.6179, 25.0682 ] } },
{ "type": "Feature", "properties": { "main_type": "兒童與少年服務", "sub_type": "兒童及少年安置機構", "name": "財團法人忠義社會福利事業基金會心棧家園", "address": "臺北市文山區萬和街6號11樓之1" }, "geometry": { "type": "Point", "coordinates": [ 121.5674, 25.0019 ] } },
{ "type": "Feature", "properties": { "main_type": "兒童與少年服務", "sub_type": "兒童及少年安置機構", "name": "財團法人臺北市私立華興育幼院", "address": "臺北市士林區仰德大道一段101號" }, "geometry": { "type": "Point", "coordinates": [ 121.5382, 25.1046 ] } },
{ "type": "Feature", "properties": { "main_type": "兒童與少年服務", "sub_type": "兒童及少年安置機構", "name": "財團法人中華文化社會福利事業基金會台北兒童福利中心", "address": "臺北市信義區虎林街120巷270號" }, "geometry": { "type": "Point", "coordinates": [ 121.5709, 25.0422 ] } },
{ "type": "Feature", "properties": { "main_type": "兒童與少年服務", "sub_type": "青少年自立住宅", "name": "臺北市青少年自立住宅(得力住宅)", "address": "臺北市文山區木柵路二段138巷33號4樓之8" }, "geometry": { "type": "Point", "coordinates": [ 121.5623, 24.988 ] } },
{ "type": "Feature", "properties": { "main_type": "兒童與少年服務", "sub_type": "兒童福利服務中心", "name": "臺北市福安兒童服務中心", "address": "臺北市中正區汀州路一段123號" }, "geometry": { "type": "Point", "coordinates": [ 121.5095, 25.0282 ] } },
{ "type": "Feature", "properties": { "main_type": "兒童與少年服務", "sub_type": "兒童福利服務中心", "name": "臺北市萬華兒童服務中心", "address": "臺北市萬華區東園街19號3樓、8樓" }, "geometry": { "type": "Point", "coordinates": [ 121.4957, 25.0279 ] } },
{ "type": "Feature", "properties": { "main_type": "兒童與少年服務", "sub_type": "少年福利服務中心", "name": "臺北市西區少年服務中心", "address": "臺北市萬華區東園街19號1樓" }, "geometry": { "type": "Point", "coordinates": [ 121.4957, 25.0279 ] } },
{ "type": "Feature", "properties": { "main_type": "兒童與少年服務", "sub_type": "少年福利服務中心", "name": "臺北市北區少年服務中心", "address": "臺北市北投區中央北路一段12號5樓" }, "geometry": { "type": "Point", "coordinates": [ 121.501, 25.1339 ] } },
{ "type": "Feature", "properties": { "main_type": "兒童與少年服務", "sub_type": "少年福利服務中心", "name": "臺北市中山、大同區少年服務中心", "address": "臺北市中山區聚盛里林森北路381號4樓" }, "geometry": { "type": "Point", "coordinates": [ 121.5257, 25.0585 ] } },
{ "type": "Feature", "properties": { "main_type": "兒童與少年服務", "sub_type": "少年福利服務中心", "name": "臺北市南區少年服務中心", "address": "臺北市大安區延吉街246巷10號4樓" }, "geometry": { "type": "Point", "coordinates": [ 121.5553, 25.0353 ] } },
{ "type": "Feature", "properties": { "main_type": "兒童與少年服務", "sub_type": "少年福利服務中心", "name": "臺北市東區少年服務中心", "address": "臺北市松山區敦化北路199巷5號3樓" }, "geometry": { "type": "Point", "coordinates": [ 121.5515, 25.057 ] } },
{ "type": "Feature", "properties": { "main_type": "兒童與少年服務", "sub_type": "少年福利服務中心", "name": "臺北市南港、信義區少年服務中心", "address": "臺北市信義區信義路六段12巷21號1樓" }, "geometry": { "type": "Point", "coordinates": [ 121.5752, 25.0331 ] } },
{ "type": "Feature", "properties": { "main_type": "兒童與少年服務", "sub_type": "兒童及少年收出養服務資源中心", "name": "臺北市兒童及少年收出養服務資源中心", "address": "臺北市中正區延平南路207號5樓" }, "geometry": { "type": "Point", "coordinates": [ 121.5077, 25.0329 ] } },
{ "type": "Feature", "properties": { "main_type": "兒童與少年服務", "sub_type": "親職教育輔導中心", "name": "臺北市親職教育輔導中心", "address": "臺北市中正區延平南路207號5樓" }, "geometry": { "type": "Point", "coordinates": [ 121.5077, 25.0329 ] } },
{ "type": "Feature", "properties": { "main_type": "兒童與少年服務", "sub_type": "早期療育社區資源中心", "name": "大安、文山早期療育社區資源中心（萬隆東營區）", "address": "臺北市文山區興隆路二段88號5樓" }, "geometry": { "type": "Point", "coordinates": [ 121.5491, 25.0005 ] } },
{ "type": "Feature", "properties": { "main_type": "兒童與少年服務", "sub_type": "早期療育社區資源中心", "name": "大安、文山區早療社區資源中心-財團法人心路社會福利基金會", "address": "臺北市大安區辛亥路一段40號2樓" }, "geometry": { "type": "Point", "coordinates": [ 121.5302, 25.02 ] } },
{ "type": "Feature", "properties": { "main_type": "兒童與少年服務", "sub_type": "早期療育社區資源中心", "name": "大同、中山區早療社區資源中心-財團法人天主教光仁社會福利基金會", "address": "臺北市中山區林森北路77號4樓" }, "geometry": { "type": "Point", "coordinates": [ 121.5249, 25.0495 ] } },
{ "type": "Feature", "properties": { "main_type": "兒童與少年服務", "sub_type": "早期療育社區資源中心", "name": "松山、內湖區早療社區資源中心-財團法人伊甸社會福利基金會", "address": "臺北市內湖區民權東路六段90巷16弄1號3樓" }, "geometry": { "type": "Point", "coordinates": [ 121.5854, 25.0679 ] } },
{ "type": "Feature", "properties": { "main_type": "兒童與少年服務", "sub_type": "早期療育社區資源中心", "name": "士林、北投區早療社區資源中心-財團法人育成社會福利基金會", "address": "臺北市北投區中央北路一段6號4樓之2" }, "geometry": { "type": "Point", "coordinates": [ 121.5012, 25.1338 ] } },
{ "type": "Feature", "properties": { "main_type": "兒童與少年服務", "sub_type": "早期療育社區資源中心", "name": "信義、南港區早療社區資源中心-財團法人第一社會福利基金會", "address": "臺北市信義區莊敬路418號5樓" }, "geometry": { "type": "Point", "coordinates": [ 121.5664, 25.0271 ] } },
{ "type": "Feature", "properties": { "main_type": "兒童與少年服務", "sub_type": "早期療育社區資源中心", "name": "中正、萬華區早療社區資源中心-財團法人中華民國發展遲緩兒童基金會", "address": "臺北市萬華區西園路一段150號3樓" }, "geometry": { "type": "Point", "coordinates": [ 121.4994, 25.0375 ] } },
{ "type": "Feature", "properties": { "main_type": "兒童與少年服務", "sub_type": "早期療育社區資源中心", "name": "財團法人天主教白永恩神父社會福利基金會附設臺北市私立聖文生兒童發展中心", "address": "臺北市北投區石牌路二段90巷20號" }, "geometry": { "type": "Point", "coordinates": [ 121.5174, 25.117 ] } },
{ "type": "Feature", "properties": { "main_type": "兒童與少年服務", "sub_type": "友善兒童少年福利服務據點", "name": "財團法人台北市中國基督教靈糧世界佈道會士林靈糧堂", "address": "臺北市北投區1鄰大業路大業路721號2樓" }, "geometry": { "type": "Point", "coordinates": [ 121.5022, 25.1373 ] } },
{ "type": "Feature", "properties": { "main_type": "兒童與少年服務", "sub_type": "友善兒童少年福利服務據點", "name": "社團法人臺北市基督教大內之光協會", "address": "臺北市內湖區康寧路一段128號" }, "geometry": { "type": "Point", "coordinates": [ 121.5937, 25.0793 ] } },
{ "type": "Feature", "properties": { "main_type": "兒童與少年服務", "sub_type": "友善兒童少年福利服務據點", "name": "616幸福工作站", "address": "臺北市松山區民生東路五段36巷8弄7號1樓" }, "geometry": { "type": "Point", "coordinates": [ 121.5594, 25.0573 ] } },
{ "type": "Feature", "properties": { "main_type": "兒童與少年服務", "sub_type": "友善兒童少年福利服務據點", "name": "迎曦學園-接觸點友善兒童少年福利服務據點", "address": "臺北市內湖區內湖路二段355巷19號 1樓(據點)" }, "geometry": { "type": "Point", "coordinates": [ 121.5924, 25.0844 ] } },
{ "type": "Feature", "properties": { "main_type": "兒童與少年服務", "sub_type": "友善兒童少年福利服務據點", "name": "財團法人基督教救世軍-友善兒少福利服務據點", "address": "臺北市內湖區內湖路一段285巷63弄7號1樓" }, "geometry": { "type": "Point", "coordinates": [ 121.5673, 25.0841 ] } },
{ "type": "Feature", "properties": { "main_type": "兒童與少年服務", "sub_type": "友善兒童少年福利服務據點", "name": "天使之家創造希望、迎向多元", "address": "臺北市內湖區成功路二段242號1樓" }, "geometry": { "type": "Point", "coordinates": [ 121.5901, 25.0659 ] } },
{ "type": "Feature", "properties": { "main_type": "兒童與少年服務", "sub_type": "友善兒童少年福利服務據點", "name": "社團法人台北市基督教萬芳浸信會-萬芳地區兒少服務計畫", "address": "臺北市文山區萬美街一段19巷5號1樓" }, "geometry": { "type": "Point", "coordinates": [ 121.5694, 25.002 ] } },
{ "type": "Feature", "properties": { "main_type": "兒童與少年服務", "sub_type": "友善兒童少年福利服務據點", "name": "臺北市樂服社區關懷協會-友善兒少福利服務據點", "address": "臺北市文山區羅斯福路五段176巷26號" }, "geometry": { "type": "Point", "coordinates": [ 121.5373, 25.0043 ] } },
{ "type": "Feature", "properties": { "main_type": "兒童與少年服務", "sub_type": "友善兒童少年福利服務據點", "name": "臺北市文山區 明興社區發展協會-明興白屋童趣練功坊", "address": "臺北市文山區明興里秀明路一段17號2樓" }, "geometry": { "type": "Point", "coordinates": [ 121.5639, 24.9895 ] } },
{ "type": "Feature", "properties": { "main_type": "兒童與少年服務", "sub_type": "友善兒童少年福利服務據點", "name": "社團法人 中華牧人關懷協會-星光班", "address": "臺北市大同區重慶北路二段57巷4號1樓" }, "geometry": { "type": "Point", "coordinates": [ 121.5145, 25.0555 ] } },
{ "type": "Feature", "properties": { "main_type": "兒童與少年服務", "sub_type": "友善兒童少年福利服務據點", "name": "順興有福「童」享兒少服務據點", "address": "臺北市文山區興隆路四段165巷11號1樓" }, "geometry": { "type": "Point", "coordinates": [ 121.5625, 24.9842 ] } },
{ "type": "Feature", "properties": { "main_type": "兒童與少年服務", "sub_type": "友善兒童少年福利服務據點", "name": "大橋友善兒童少年福利服務據點", "address": "臺北市大同區迪化街二段67號" }, "geometry": { "type": "Point", "coordinates": [ 121.5095, 25.0649 ] } },
{ "type": "Feature", "properties": { "main_type": "兒童與少年服務", "sub_type": "友善兒童少年福利服務據點", "name": "社團法人中華社區厝邊頭尾營造協會「拉他們一把」社區弱勢家庭服務計畫", "address": "臺北市中山區建國北路一段33巷45號" }, "geometry": { "type": "Point", "coordinates": [ 121.5399, 25.0478 ] } },
{ "type": "Feature", "properties": { "main_type": "兒童與少年服務", "sub_type": "友善兒童少年福利服務據點", "name": "財團法人台北市基督教勵友中心-新興友善兒童少年福利服務據點", "address": "臺北市中山區雙城街43巷2號" }, "geometry": { "type": "Point", "coordinates": [ 121.5249, 25.0674 ] } },
{ "type": "Feature", "properties": { "main_type": "兒童與少年服務", "sub_type": "友善兒童少年福利服務據點", "name": "社團法人台北市原住民關懷協會-Lokah Laqi中山區友善兒少福利服務據點", "address": "臺北市中山區中山北路二段137巷18-12號B1" }, "geometry": { "type": "Point", "coordinates": [ 121.5242, 25.0617 ] } },
{ "type": "Feature", "properties": { "main_type": "兒童與少年服務", "sub_type": "友善兒童少年福利服務據點", "name": "「小星光陪讀班」友善兒童少年福利服務據點計畫", "address": "臺北市中正區杭州南路一段15-1號B1" }, "geometry": { "type": "Point", "coordinates": [ 121.5267, 25.0431 ] } },
{ "type": "Feature", "properties": { "main_type": "兒童與少年服務", "sub_type": "友善兒童少年福利服務據點", "name": "社團法人中華青少年純潔運動協會務-純潔古亭據點", "address": "臺北市中正區水源路臨28號" }, "geometry": { "type": "Point", "coordinates": [ 121.5228, 25.0197 ] } },
{ "type": "Feature", "properties": { "main_type": "兒童與少年服務", "sub_type": "友善兒童少年福利服務據點", "name": "南機場學苑-友善兒少福利服務據點", "address": "臺北市中正區中華路二段315巷18號 (據點)" }, "geometry": { "type": "Point", "coordinates": [ 121.507, 25.0285 ] } },
{ "type": "Feature", "properties": { "main_type": "兒童與少年服務", "sub_type": "友善兒童少年福利服務據點", "name": "愛鄰木柵舊社區兒少據點", "address": "臺北市文山區木柵路三段77號6樓" }, "geometry": { "type": "Point", "coordinates": [ 121.5672, 24.9888 ] } },
{ "type": "Feature", "properties": { "main_type": "兒童與少年服務", "sub_type": "友善兒童少年福利服務據點", "name": "社團法人台北市基督教活水江河全人關懷協會-社區兒童少年關懷服務據點計畫", "address": "臺北市信義區松信路163號地下室" }, "geometry": { "type": "Point", "coordinates": [ 121.5721, 25.043 ] } },
{ "type": "Feature", "properties": { "main_type": "兒童與少年服務", "sub_type": "友善兒童少年福利服務據點", "name": "臺北市南港區久如社區發展協會(國小)", "address": "臺北市南港區研究院路二段169號1樓" }, "geometry": { "type": "Point", "coordinates": [ 121.6174, 25.0375 ] } },
{ "type": "Feature", "properties": { "main_type": "兒童與少年服務", "sub_type": "友善兒童少年福利服務據點", "name": "財團法人台北市立心慈善基金會「小荳荳關懷園地」社區兒童照顧", "address": "臺北市萬華區東園街19號3樓" }, "geometry": { "type": "Point", "coordinates": [ 121.4957, 25.0279 ] } },
{ "type": "Feature", "properties": { "main_type": "兒童與少年服務", "sub_type": "友善兒童少年福利服務據點", "name": "社團法人台灣社區實踐協會-萬華青年次分區兒少友善據點", "address": "臺北市萬華區萬大路137巷16號" }, "geometry": { "type": "Point", "coordinates": [ 121.5013, 25.029 ] } },
{ "type": "Feature", "properties": { "main_type": "兒童與少年服務", "sub_type": "友善兒童少年福利服務據點", "name": "臺北市南港區久如社區發展協會-久如社區友善兒少服務據點(國高中)", "address": "臺北市南港區研究院路二段208號1樓" }, "geometry": { "type": "Point", "coordinates": [ 121.6171, 25.0367 ] } },
{ "type": "Feature", "properties": { "main_type": "兒童與少年服務", "sub_type": "友善兒童少年福利服務據點", "name": "財團法人伊甸社會福利基金會", "address": "臺北市松山區八德路三段155巷4弄35號1樓" }, "geometry": { "type": "Point", "coordinates": [ 121.5556, 25.0489 ] } },
{ "type": "Feature", "properties": { "main_type": "兒童與少年服務", "sub_type": "友善兒童少年福利服務據點", "name": "財團法人味全文化教育基金會", "address": "臺北市中山區松江路125號4樓" }, "geometry": { "type": "Point", "coordinates": [ 121.5333, 25.053 ] } },
{ "type": "Feature", "properties": { "main_type": "兒童與少年服務", "sub_type": "友善兒童少年福利服務據點", "name": "社團法人台灣社區 鴻羽關懷協會-兒少夢想力學苑", "address": "臺北市萬華區萬大路322巷39號3樓" }, "geometry": { "type": "Point", "coordinates": [ 121.4991, 25.0246 ] } },
{ "type": "Feature", "properties": { "main_type": "兒童與少年服務", "sub_type": "友善兒童少年福利服務據點", "name": "牧人學堂(銀河班) 友善兒童少年福利服務據點", "address": "臺北市大同區寧夏路139號2樓" }, "geometry": { "type": "Point", "coordinates": [ 121.5144, 25.0609 ] } },
{ "type": "Feature", "properties": { "main_type": "兒童與少年服務", "sub_type": "友善兒童少年福利服務據點", "name": "臺灣兒少玩心教育協會", "address": "臺北市文山區興隆路四段145巷9弄3號1樓" }, "geometry": { "type": "Point", "coordinates": [ 121.562, 24.9853 ] } },
{ "type": "Feature", "properties": { "main_type": "兒童與少年服務", "sub_type": "友善兒童少年福利服務據點", "name": "社團法人中華青少年純潔運動協會-萬華社區兒少關懷據點", "address": "臺北市萬華區寶興街80巷25號" }, "geometry": { "type": "Point", "coordinates": [ 121.4939, 25.0256 ] } },
{ "type": "Feature", "properties": { "main_type": "兒童與少年服務", "sub_type": "友善兒童少年福利服務據點", "name": "立心青春痘關懷園地社區少年照顧計畫", "address": "臺北市萬華區東園街19號8樓" }, "geometry": { "type": "Point", "coordinates": [ 121.4957, 25.0279 ] } },
{ "type": "Feature", "properties": { "main_type": "兒童與少年服務", "sub_type": "友善兒童少年福利服務據點", "name": "社團法人臺灣好學協會-好學空間友善兒少福利據點", "address": "臺北市中山區松江路360號5樓" }, "geometry": { "type": "Point", "coordinates": [ 121.533, 25.0619 ] } },
{ "type": "Feature", "properties": { "main_type": "兒童與少年服務", "sub_type": "友善兒童少年福利服務據點", "name": "台北市朱厝崙社區發展協會", "address": "臺北市中山區龍江路45巷6號" }, "geometry": { "type": "Point", "coordinates": [ 121.5411, 25.0491 ] } },
{ "type": "Feature", "properties": { "main_type": "兒童與少年服務", "sub_type": "友善兒童少年福利服務據點", "name": "社團法人中華民國我願意全人關懷協會- I Do友善兒童少年福利服務據點", "address": "臺北市南港區同德路85巷12號1樓" }, "geometry": { "type": "Point", "coordinates": [ 121.5854, 25.0466 ] } },
{ "type": "Feature", "properties": { "main_type": "兒童與少年服務", "sub_type": "兒少活動小站", "name": "台北市彩虹全人關懷發展協會-彩虹小棧-兒少活動小站", "address": "臺北市內湖區文德路208巷16號B1" }, "geometry": { "type": "Point", "coordinates": [ 121.5835, 25.0777 ] } },
{ "type": "Feature", "properties": { "main_type": "兒童與少年服務", "sub_type": "兒少活動小站", "name": "社團法人國際奔享體驗教育協會-吉利真光-兒少活動小站", "address": "臺北市北投區石牌路一段39巷80弄41號1樓" }, "geometry": { "type": "Point", "coordinates": [ 121.5109, 25.1159 ] } },
{ "type": "Feature", "properties": { "main_type": "兒童與少年服務", "sub_type": "兒少活動小站", "name": "社團法人中華民國基督教榮耀福音協會-勇士總動員-兒少活動小站", "address": "臺北市中山區成功里明水路636號" }, "geometry": { "type": "Point", "coordinates": [ 121.5513, 25.0828 ] } },
{ "type": "Feature", "properties": { "main_type": "兒童與少年服務", "sub_type": "兒少活動小站", "name": "臺北市南港區久如社區發展協會-活動小站", "address": "臺北市南港區九如里研究院路二段208號1樓" }, "geometry": { "type": "Point", "coordinates": [ 121.6171, 25.0367 ] } },
{ "type": "Feature", "properties": { "main_type": "兒童與少年服務", "sub_type": "兒少活動小站", "name": "財團法人基督教中華循理會內湖教會-社區弱勢兒少課業輔導暨品格成長營活動小站", "address": "臺北市內湖區環山路三段12號1樓" }, "geometry": { "type": "Point", "coordinates": [ 121.5791, 25.0847 ] } },
{ "type": "Feature", "properties": { "main_type": "兒童與少年服務", "sub_type": "兒少活動小站", "name": "社團法人台灣基督教展翔天地全人發展協會-小太陽歡樂園地活動小站", "address": "臺北市中正區汀州路三段101號2樓" }, "geometry": { "type": "Point", "coordinates": [ 121.5295, 25.0171 ] } },
{ "type": "Feature", "properties": { "main_type": "兒童與少年服務", "sub_type": "兒少活動小站", "name": "社團法人台北市文山區明興社區發展協會-明興巷弄兒少活動小站", "address": "臺北市文山區興隆路四段61號" }, "geometry": { "type": "Point", "coordinates": [ 121.56, 24.9894 ] } },
{ "type": "Feature", "properties": { "main_type": "兒童與少年服務", "sub_type": "兒少活動小站", "name": "社團法人台灣守護有祢生命關懷協會-守護有祢兒童少年活動八禱活動小站", "address": "臺北市北投區奇岩里公舘路376巷2弄9號1樓" }, "geometry": { "type": "Point", "coordinates": [ 121.5039, 25.1233 ] } },
{ "type": "Feature", "properties": { "main_type": "兒童與少年服務", "sub_type": "兒少活動小站", "name": "社團法人中華牧人關懷協會-星光小屋-兒少活動小站", "address": "臺北市文山區福興路78巷20弄2號1樓" }, "geometry": { "type": "Point", "coordinates": [ 121.551, 25.0042 ] } },
{ "type": "Feature", "properties": { "main_type": "兒童與少年服務", "sub_type": "兒少活動小站", "name": "財團法人新北市基督教新希望教會-「花盛開福中」新希望教會福中萬花塢活動小站", "address": "臺北市士林區福港街129巷10弄12號1樓" }, "geometry": { "type": "Point", "coordinates": [ 121.5185, 25.0876 ] } },
{ "type": "Feature", "properties": { "main_type": "兒童與少年服務", "sub_type": "兒少活動小站", "name": "社團法人臺灣翔愛公益慈善協會-翻轉吧~孩子-兒少活動小站", "address": "臺北市士林區美崙街53號" }, "geometry": { "type": "Point", "coordinates": [ 121.5224, 25.097 ] } },
{ "type": "Feature", "properties": { "main_type": "兒童與少年服務", "sub_type": "兒少活動小站", "name": "社團法人臺北市放心窩社會互助協會-放心窩在社子島兒少活動小站", "address": "臺北市士林區延平北路八段93巷2號" }, "geometry": { "type": "Point", "coordinates": [ 121.4838, 25.1057 ] } },
{ "type": "Feature", "properties": { "main_type": "兒童與少年服務", "sub_type": "兒少活動小站", "name": "臺北市南港區聯成社區發展協會-歡樂窩.自在窩.安心窩-聯成兒少小站", "address": "臺北市南港區東新街77巷29號1樓" }, "geometry": { "type": "Point", "coordinates": [ 121.5883, 25.0477 ] } },
{ "type": "Feature", "properties": { "main_type": "兒童與少年服務", "sub_type": "兒少活動小站", "name": "財團法人台北市敦安社會福利基金會-「敦」親睦鄰「安」你心", "address": "臺北市中正區羅斯福路一段36號4樓" }, "geometry": { "type": "Point", "coordinates": [ 121.5191, 25.0312 ] } },
{ "type": "Feature", "properties": { "main_type": "兒童與少年服務", "sub_type": "兒少活動小站", "name": "社團法人台北市士林全人關懷協會-士林兒少v小站", "address": "臺北市士林區文林路421巷30號2樓" }, "geometry": { "type": "Point", "coordinates": [ 121.5232, 25.0942 ] } },
{ "type": "Feature", "properties": { "main_type": "兒童與少年服務", "sub_type": "兒少活動小站", "name": "社團法人臺北市放心窩社會互助協會-放心窩在「放心窩」活動小站", "address": "臺北市大同區迪化街二段172巷11號1樓" }, "geometry": { "type": "Point", "coordinates": [ 121.5099, 25.0672 ] } },
{ "type": "Feature", "properties": { "main_type": "兒童與少年服務", "sub_type": "兒少活動小站", "name": "中華民國愛之語全人關懷教育協會-古亭兒童少年活動小站", "address": "臺北市中正區羅斯福路二段44號2樓" }, "geometry": { "type": "Point", "coordinates": [ 121.5215, 25.028 ] } },
{ "type": "Feature", "properties": { "main_type": "兒童與少年服務", "sub_type": "兒少活動小站", "name": "社團法人臺北市臻佶祥社會服務協會-書屋花甲的咖啡夢想", "address": "臺北市中正區中華路二段307巷82號1樓" }, "geometry": { "type": "Point", "coordinates": [ 121.5056, 25.0288 ] } },
{ "type": "Feature", "properties": { "main_type": "兒童與少年服務", "sub_type": "兒少活動小站", "name": "社團法人台北市歐伊寇斯OIKOS社區關懷協會-小星光兒童少年活動小站", "address": "臺北市中正區杭州南路一段15-1號B1" }, "geometry": { "type": "Point", "coordinates": [ 121.5267, 25.0431 ] } },
{ "type": "Feature", "properties": { "main_type": "兒童與少年服務", "sub_type": "兒少活動小站", "name": "臺北市大安區古莊 社區發展協會-古莊兒童少年活動小站", "address": "臺北市大安區浦城街13巷20號" }, "geometry": { "type": "Point", "coordinates": [ 121.5278, 25.0244 ] } },
{ "type": "Feature", "properties": { "main_type": "兒童與少年服務", "sub_type": "兒少活動小站", "name": "財團法人台北市中國基督教靈糧世界佈道會台北靈糧堂-快樂學習列車", "address": "臺北市大同區承德路三段93號" }, "geometry": { "type": "Point", "coordinates": [ 121.5186, 25.0663 ] } },
{ "type": "Feature", "properties": { "main_type": "婦女服務", "sub_type": "婦女館", "name": "臺北市婦女館", "address": "臺北市萬華區艋舺大道101號3樓" }, "geometry": { "type": "Point", "coordinates": [ 121.5014, 25.0335 ] } },
{ "type": "Feature", "properties": { "main_type": "婦女服務", "sub_type": "婦女暨家庭服務中心", "name": "臺北市新移民家庭服務中心", "address": "臺北市大同區迪化街一段21號7樓" }, "geometry": { "type": "Point", "coordinates": [ 121.5103, 25.0545 ] } },
{ "type": "Feature", "properties": { "main_type": "婦女服務", "sub_type": "婦女暨家庭服務中心", "name": "臺北市中正婦女支持培力中心", "address": "臺北市中正區南門里12鄰延平南路207號4樓" }, "geometry": { "type": "Point", "coordinates": [ 121.5077, 25.0329 ] } },
{ "type": "Feature", "properties": { "main_type": "婦女服務", "sub_type": "婦女暨家庭服務中心", "name": "臺北市信義婦女支持培力中心", "address": "臺北市信義區大仁里27鄰大道路116號8樓" }, "geometry": { "type": "Point", "coordinates": [ 121.5829, 25.0386 ] } },
{ "type": "Feature", "properties": { "main_type": "婦女服務", "sub_type": "婦女暨家庭服務中心", "name": "臺北市文山婦女支持培力中心", "address": "臺北市文山區興安里0鄰興隆路二段88號5樓" }, "geometry": { "type": "Point", "coordinates": [ 121.5491, 25.0005 ] } },
{ "type": "Feature", "properties": { "main_type": "婦女服務", "sub_type": "婦女暨家庭服務中心", "name": "臺北市大安婦女支持培力中心", "address": "臺北市大安區延吉街246巷10號5樓" }, "geometry": { "type": "Point", "coordinates": [ 121.5553, 25.0353 ] } },
{ "type": "Feature", "properties": { "main_type": "婦女服務", "sub_type": "婦女暨家庭服務中心", "name": "臺北市大直婦女支持培力中心", "address": "臺北市中山區大直街1號2樓" }, "geometry": { "type": "Point", "coordinates": [ 121.547, 25.0803 ] } },
{ "type": "Feature", "properties": { "main_type": "婦女服務", "sub_type": "婦女暨家庭服務中心", "name": "臺北市內湖婦女支持培力中心", "address": "臺北市內湖區康樂街110巷16弄20號7樓" }, "geometry": { "type": "Point", "coordinates": [ 121.6184, 25.0704 ] } },
{ "type": "Feature", "properties": { "main_type": "婦女服務", "sub_type": "婦女暨家庭服務中心", "name": "臺北市文山婦女支持培力中心", "address": "臺北市文山區景行里0鄰景後街151號3樓" }, "geometry": { "type": "Point", "coordinates": [ 121.5419, 24.99 ] } },
{ "type": "Feature", "properties": { "main_type": "婦女服務", "sub_type": "婦女暨家庭服務中心", "name": "臺北市北投婦女支持培力中心", "address": "臺北市北投區長安里1鄰中央北路一段12號6樓" }, "geometry": { "type": "Point", "coordinates": [ 121.501, 25.1339 ] } },
{ "type": "Feature", "properties": { "main_type": "婦女服務", "sub_type": "婦女暨家庭服務中心", "name": "臺北市松德婦女暨家庭服務中心", "address": "臺北市信義區松德路25巷60號1樓" }, "geometry": { "type": "Point", "coordinates": [ 121.5775, 25.0378 ] } },
{ "type": "Feature", "properties": { "main_type": "婦女服務", "sub_type": "婦女暨家庭服務中心", "name": "臺北市萬華婦女支持培力中心", "address": "臺北市萬華區東園街19號4樓" }, "geometry": { "type": "Point", "coordinates": [ 121.4957, 25.0279 ] } },
{ "type": "Feature", "properties": { "main_type": "婦女服務", "sub_type": "婦女暨家庭服務中心", "name": "臺北市西區單親家庭服務中心", "address": "臺北市大同區迪化街一段21號7樓" }, "geometry": { "type": "Point", "coordinates": [ 121.5103, 25.0545 ] } },
{ "type": "Feature", "properties": { "main_type": "婦女服務", "sub_type": "婦女暨家庭服務中心", "name": "臺北市東區單親家庭服務中心", "address": "臺北市松山區南京東路五段251巷46弄5號7樓" }, "geometry": { "type": "Point", "coordinates": [ 121.5648, 25.0534 ] } },
{ "type": "Feature", "properties": { "main_type": "婦女服務", "sub_type": "婦女暨家庭服務中心", "name": "臺北市松山南港婦女支持培力中心", "address": "臺北市松山區南京東路五段251巷46弄5號7樓" }, "geometry": { "type": "Point", "coordinates": [ 121.5648, 25.0534 ] } },
{ "type": "Feature", "properties": { "main_type": "婦女服務", "sub_type": "婦女暨家庭服務中心", "name": "士林婦女暨家庭服務中心", "address": "臺北市士林區基河路140號" }, "geometry": { "type": "Point", "coordinates": [ 121.5223, 25.0889 ] } },
{ "type": "Feature", "properties": { "main_type": "婦女服務", "sub_type": "婦女暨家庭服務中心", "name": "臺北市大同士林婦女支持培力中心", "address": "臺北市大同區迪化街一段21號7樓" }, "geometry": { "type": "Point", "coordinates": [ 121.5103, 25.0545 ] } },
{ "type": "Feature", "properties": { "main_type": "婦女服務", "sub_type": "新移民社區關懷據點", "name": "臺北市北區新移民社區關懷據點", "address": "臺北市士林區蘭雅里8鄰中山北路六段290巷7弄5號1樓" }, "geometry": { "type": "Point", "coordinates": [ 121.5262, 25.1104 ] } },
{ "type": "Feature", "properties": { "main_type": "婦女服務", "sub_type": "新移民社區關懷據點", "name": "臺北市西區新移民社區關懷據點", "address": "臺北市中正區延平南路270號4樓" }, "geometry": { "type": "Point", "coordinates": [ 121.5072, 25.0323 ] } },
{ "type": "Feature", "properties": { "main_type": "婦女服務", "sub_type": "新移民社區關懷據點", "name": "臺北市東區新移民社區關懷據點", "address": "臺北市南港區向陽路252號1樓" }, "geometry": { "type": "Point", "coordinates": [ 121.5934, 25.058 ] } },
{ "type": "Feature", "properties": { "main_type": "婦女服務", "sub_type": "新移民社區關懷據點", "name": "臺北市南區新移民社區關懷據點", "address": "臺北市文山區萬祥里5鄰羅斯福路五段211巷23號1樓" }, "geometry": { "type": "Point", "coordinates": [ 121.5398, 25.0026 ] } },
{ "type": "Feature", "properties": { "main_type": "貧困危機家庭服務", "sub_type": "平價住宅", "name": "延吉平宅", "address": "臺北市大安區延吉街236巷17號" }, "geometry": { "type": "Point", "coordinates": [ 121.5552, 25.0364 ] } },
{ "type": "Feature", "properties": { "main_type": "貧困危機家庭服務", "sub_type": "平價住宅", "name": "安康平宅", "address": "臺北市文山區興隆路四段103號3樓" }, "geometry": { "type": "Point", "coordinates": [ 121.5606, 24.988 ] } },
{ "type": "Feature", "properties": { "main_type": "貧困危機家庭服務", "sub_type": "平價住宅", "name": "大同之家", "address": "臺北市北投區東昇路12巷4號" }, "geometry": { "type": "Point", "coordinates": [ 121.5231, 25.1461 ] } },
{ "type": "Feature", "properties": { "main_type": "貧困危機家庭服務", "sub_type": "平價住宅", "name": "福民平宅", "address": "臺北市萬華區西園路二段320巷57號" }, "geometry": { "type": "Point", "coordinates": [ 121.491, 25.0276 ] } },
{ "type": "Feature", "properties": { "main_type": "貧困危機家庭服務", "sub_type": "社會福利服務中心", "name": "臺北市政府社會局內湖社會福利服務中心", "address": "臺北市內湖區星雲街161巷3號4樓" }, "geometry": { "type": "Point", "coordinates": [ 121.5961, 25.0811 ] } },
{ "type": "Feature", "properties": { "main_type": "貧困危機家庭服務", "sub_type": "社會福利服務中心", "name": "臺北市政府社會局文山社會福利服務中心", "address": "臺北市文山區興隆路二段160號6樓" }, "geometry": { "type": "Point", "coordinates": [ 121.5514, 25.0016 ] } },
{ "type": "Feature", "properties": { "main_type": "貧困危機家庭服務", "sub_type": "社會福利服務中心", "name": "臺北市政府社會局北投社會福利服務中心", "address": "臺北市北投區新市街30號5樓" }, "geometry": { "type": "Point", "coordinates": [ 121.5024, 25.1325 ] } },
{ "type": "Feature", "properties": { "main_type": "貧困危機家庭服務", "sub_type": "社會福利服務中心", "name": "臺北市政府社會局松山社會福利服務中心", "address": "臺北市松山區民生東路五段163之1號9樓" }, "geometry": { "type": "Point", "coordinates": [ 121.5626, 25.0591 ] } },
{ "type": "Feature", "properties": { "main_type": "貧困危機家庭服務", "sub_type": "社會福利服務中心", "name": "臺北市政府社會局信義社會福利服務中心", "address": "臺北市信義區松隆路36號5樓" }, "geometry": { "type": "Point", "coordinates": [ 121.5675, 25.0434 ] } },
{ "type": "Feature", "properties": { "main_type": "貧困危機家庭服務", "sub_type": "社會福利服務中心", "name": "臺北市政府社會局南港社會福利服務中心", "address": "臺北市南港區市民大道八段367號3樓" }, "geometry": { "type": "Point", "coordinates": [ 121.6079, 25.0538 ] } },
{ "type": "Feature", "properties": { "main_type": "貧困危機家庭服務", "sub_type": "社會福利服務中心", "name": "臺北市政府社會局萬華社會福利服務中心", "address": "臺北市萬華區梧州街36號5樓" }, "geometry": { "type": "Point", "coordinates": [ 121.4975, 25.0374 ] } },
{ "type": "Feature", "properties": { "main_type": "貧困危機家庭服務", "sub_type": "社會福利服務中心", "name": "臺北市政府社會局士林社會福利服務中心", "address": "臺北市士林區基河路140號1樓" }, "geometry": { "type": "Point", "coordinates": [ 121.5223, 25.0889 ] } },
{ "type": "Feature", "properties": { "main_type": "貧困危機家庭服務", "sub_type": "社會福利服務中心", "name": "臺北市政府社會局大同社會福利服務中心", "address": "臺北市大同區昌吉街57號6樓" }, "geometry": { "type": "Point", "coordinates": [ 121.5151, 25.066 ] } },
{ "type": "Feature", "properties": { "main_type": "貧困危機家庭服務", "sub_type": "社會福利服務中心", "name": "臺北市政府社會局大安社會福利服務中心", "address": "臺北市大安區四維路198巷30弄5號2樓之9" }, "geometry": { "type": "Point", "coordinates": [ 121.5459, 25.0266 ] } },
{ "type": "Feature", "properties": { "main_type": "貧困危機家庭服務", "sub_type": "社會福利服務中心", "name": "臺北市政府社會局中山社會福利服務中心", "address": "臺北市中山區合江街137號3樓" }, "geometry": { "type": "Point", "coordinates": [ 121.5393, 25.0617 ] } },
{ "type": "Feature", "properties": { "main_type": "貧困危機家庭服務", "sub_type": "社會福利服務中心", "name": "臺北市政府社會局中正社會福利服務中心", "address": "臺北市中正區延平南路207號6樓" }, "geometry": { "type": "Point", "coordinates": [ 121.5077, 25.0329 ] } },
{ "type": "Feature", "properties": { "main_type": "貧困危機家庭服務", "sub_type": "培力基地", "name": "轉角培力基地", "address": "臺北市中正區南陽街23巷1號" }, "geometry": { "type": "Point", "coordinates": [ 121.5165, 25.0438 ] } },
{ "type": "Feature", "properties": { "main_type": "社區服務、NPO", "sub_type": "「咱ㄟ社區」服務據點", "name": "「咱ㄟ社區」圓環社區據點", "address": "臺北市大同區重慶北路一段83巷37號6樓" }, "geometry": { "type": "Point", "coordinates": [ 121.5155, 25.0529 ] } },
{ "type": "Feature", "properties": { "main_type": "社區服務、NPO", "sub_type": "「咱ㄟ社區」服務據點", "name": "「咱ㄟ社區」錦華社區據點", "address": "臺北市大安區羅斯福路二段35巷19弄6號" }, "geometry": { "type": "Point", "coordinates": [ 121.5229, 25.0282 ] } },
{ "type": "Feature", "properties": { "main_type": "社區服務、NPO", "sub_type": "「咱ㄟ社區」服務據點", "name": "「咱ㄟ社區」安東社區據點", "address": "臺北市大安區安東街28號1樓" }, "geometry": { "type": "Point", "coordinates": [ 121.5424, 25.0443 ] } },
{ "type": "Feature", "properties": { "main_type": "社區服務、NPO", "sub_type": "「咱ㄟ社區」服務據點", "name": "「咱ㄟ社區」古風社區據點", "address": "臺北市大安區泰順街60巷2-1號" }, "geometry": { "type": "Point", "coordinates": [ 121.5309, 25.0223 ] } },
{ "type": "Feature", "properties": { "main_type": "社區服務、NPO", "sub_type": "「咱ㄟ社區」服務據點", "name": "「咱ㄟ社區」欣龍陣社區據點", "address": "臺北市大安區瑞安街65-1號4樓" }, "geometry": { "type": "Point", "coordinates": [ 121.5416, 25.0288 ] } },
{ "type": "Feature", "properties": { "main_type": "社區服務、NPO", "sub_type": "「咱ㄟ社區」服務據點", "name": "「咱ㄟ社區」新民炤社區據點", "address": "臺北市大安區建國南路一段286巷35號1樓" }, "geometry": { "type": "Point", "coordinates": [ 121.5358, 25.0362 ] } },
{ "type": "Feature", "properties": { "main_type": "社區服務、NPO", "sub_type": "「咱ㄟ社區」服務據點", "name": "「咱ㄟ社區」古莊社區據點", "address": "臺北市大安區羅斯福路二段81巷16弄1-2號2樓" }, "geometry": { "type": "Point", "coordinates": [ 121.5247, 25.0254 ] } },
{ "type": "Feature", "properties": { "main_type": "社區服務、NPO", "sub_type": "「咱ㄟ社區」服務據點", "name": "「咱ㄟ社區」大直社區據點", "address": "臺北市中山區北安路573巷6號" }, "geometry": { "type": "Point", "coordinates": [ 121.5475, 25.0813 ] } },
{ "type": "Feature", "properties": { "main_type": "社區服務、NPO", "sub_type": "「咱ㄟ社區」服務據點", "name": "「咱ㄟ社區」文祥社區據點", "address": "臺北市中正區金山南路一段100號1樓" }, "geometry": { "type": "Point", "coordinates": [ 121.5274, 25.0357 ] } },
{ "type": "Feature", "properties": { "main_type": "社區服務、NPO", "sub_type": "「咱ㄟ社區」服務據點", "name": "「咱ㄟ社區」南機場社區據點", "address": "臺北市中正區中華路二段303巷14號" }, "geometry": { "type": "Point", "coordinates": [ 121.5053, 25.0295 ] } },
{ "type": "Feature", "properties": { "main_type": "社區服務、NPO", "sub_type": "「咱ㄟ社區」服務據點", "name": "「咱ㄟ社區」新永昌社區據點", "address": "臺北市中正區汀州路一段232號4樓" }, "geometry": { "type": "Point", "coordinates": [ 121.51, 25.0274 ] } },
{ "type": "Feature", "properties": { "main_type": "社區服務、NPO", "sub_type": "「咱ㄟ社區」服務據點", "name": "「咱ㄟ社區」新營社區據點", "address": "臺北市中正區寧波東街16巷2號" }, "geometry": { "type": "Point", "coordinates": [ 121.5207, 25.0324 ] } },
{ "type": "Feature", "properties": { "main_type": "社區服務、NPO", "sub_type": "「咱ㄟ社區」服務據點", "name": "「咱ㄟ社區」白石湖社區據點", "address": "臺北市內湖區碧山路40-3號" }, "geometry": { "type": "Point", "coordinates": [ 121.5883, 25.1034 ] } },
{ "type": "Feature", "properties": { "main_type": "社區服務、NPO", "sub_type": "「咱ㄟ社區」服務據點", "name": "「咱ㄟ社區」碧湖社區據點", "address": "臺北市內湖區內湖路三段294號" }, "geometry": { "type": "Point", "coordinates": [ 121.5849, 25.0892 ] } },
{ "type": "Feature", "properties": { "main_type": "社區服務、NPO", "sub_type": "「咱ㄟ社區」服務據點", "name": "「咱ㄟ社區」忠順社區據點", "address": "臺北市文山區興隆路四段145巷30號1樓" }, "geometry": { "type": "Point", "coordinates": [ 121.5631, 24.9852 ] } },
{ "type": "Feature", "properties": { "main_type": "社區服務、NPO", "sub_type": "「咱ㄟ社區」服務據點", "name": "「咱ㄟ社區」順興社區據點", "address": "臺北市文山區興隆路四段165巷12號2樓" }, "geometry": { "type": "Point", "coordinates": [ 121.5626, 24.9841 ] } },
{ "type": "Feature", "properties": { "main_type": "社區服務、NPO", "sub_type": "「咱ㄟ社區」服務據點", "name": "「咱ㄟ社區」明興社區據點", "address": "臺北市文山區木柵路二段109巷34號2樓" }, "geometry": { "type": "Point", "coordinates": [ 121.5638, 24.9908 ] } },
{ "type": "Feature", "properties": { "main_type": "社區服務、NPO", "sub_type": "「咱ㄟ社區」服務據點", "name": "「咱ㄟ社區」景慶社區據點", "address": "臺北市文山區景福街147-1號1樓" }, "geometry": { "type": "Point", "coordinates": [ 121.5364, 24.9957 ] } },
{ "type": "Feature", "properties": { "main_type": "社區服務、NPO", "sub_type": "「咱ㄟ社區」服務據點", "name": "「咱ㄟ社區」樟林社區據點", "address": "臺北市文山區光輝路87巷3號2樓" }, "geometry": { "type": "Point", "coordinates": [ 121.5572, 24.9856 ] } },
{ "type": "Feature", "properties": { "main_type": "社區服務、NPO", "sub_type": "「咱ㄟ社區」服務據點", "name": "「咱ㄟ社區」榮光社區據點", "address": "臺北市北投區石牌路一段166巷43弄15號1樓" }, "geometry": { "type": "Point", "coordinates": [ 121.515, 25.114 ] } },
{ "type": "Feature", "properties": { "main_type": "社區服務、NPO", "sub_type": "「咱ㄟ社區」服務據點", "name": "「咱ㄟ社區」奇岩社區據點", "address": "臺北市北投區公舘路315號1樓" }, "geometry": { "type": "Point", "coordinates": [ 121.5058, 25.124 ] } },
{ "type": "Feature", "properties": { "main_type": "社區服務、NPO", "sub_type": "「咱ㄟ社區」服務據點", "name": "「咱ㄟ社區」吉慶社區據點", "address": "臺北市北投區實踐街34號3樓" }, "geometry": { "type": "Point", "coordinates": [ 121.5086, 25.1151 ] } },
{ "type": "Feature", "properties": { "main_type": "社區服務、NPO", "sub_type": "「咱ㄟ社區」服務據點", "name": "「咱ㄟ社區」立賢社區據點", "address": "臺北市北投區承德路七段232巷16號3樓" }, "geometry": { "type": "Point", "coordinates": [ 121.5074, 25.1157 ] } },
{ "type": "Feature", "properties": { "main_type": "社區服務、NPO", "sub_type": "「咱ㄟ社區」服務據點", "name": "「咱ㄟ社區」立群社區據點", "address": "臺北市北投區尊賢街251巷18號1樓" }, "geometry": { "type": "Point", "coordinates": [ 121.5057, 25.1177 ] } },
{ "type": "Feature", "properties": { "main_type": "社區服務、NPO", "sub_type": "「咱ㄟ社區」服務據點", "name": "「咱ㄟ社區」秀山社區據點", "address": "臺北市北投區秀山里中和街502巷2弄15號1樓" }, "geometry": { "type": "Point", "coordinates": [ 121.495, 25.1456 ] } },
{ "type": "Feature", "properties": { "main_type": "社區服務、NPO", "sub_type": "「咱ㄟ社區」服務據點", "name": "「咱ㄟ社區」清江社區據點", "address": "臺北市北投區清江里崇仁路一段83號5樓之1 " }, "geometry": { "type": "Point", "coordinates": [ 121.5017, 25.1259 ] } },
{ "type": "Feature", "properties": { "main_type": "社區服務、NPO", "sub_type": "「咱ㄟ社區」服務據點", "name": "「咱ㄟ社區」復建社區據點", "address": "臺北市松山區光復南路6巷26弄3號" }, "geometry": { "type": "Point", "coordinates": [ 121.557, 25.0474 ] } },
{ "type": "Feature", "properties": { "main_type": "社區服務、NPO", "sub_type": "「咱ㄟ社區」服務據點", "name": "「咱ㄟ社區」雙和社區據點", "address": "臺北市信義區吳興街284巷24弄12號" }, "geometry": { "type": "Point", "coordinates": [ 121.5631, 25.0243 ] } },
{ "type": "Feature", "properties": { "main_type": "社區服務、NPO", "sub_type": "「咱ㄟ社區」服務據點", "name": "「咱ㄟ社區」永安社區據點", "address": "臺北市信義區忠孝東路五段236巷10弄10號3樓" }, "geometry": { "type": "Point", "coordinates": [ 121.5714, 25.0401 ] } },
{ "type": "Feature", "properties": { "main_type": "社區服務、NPO", "sub_type": "「咱ㄟ社區」服務據點", "name": "「咱ㄟ社區」舊莊社區據點", "address": "臺北市南港區舊莊街一段145巷6弄39號" }, "geometry": { "type": "Point", "coordinates": [ 121.6222, 25.0396 ] } },
{ "type": "Feature", "properties": { "main_type": "社區服務、NPO", "sub_type": "「咱ㄟ社區」服務據點", "name": "「咱ㄟ社區」好厝邊社區據點", "address": "臺北市南港區研究院路二段12巷57弄38號1樓" }, "geometry": { "type": "Point", "coordinates": [ 121.6136, 25.0481 ] } },
{ "type": "Feature", "properties": { "main_type": "社區服務、NPO", "sub_type": "「咱ㄟ社區」服務據點", "name": "「咱ㄟ社區」鴻福社區據點", "address": "臺北市南港區鴻福里成福路82號" }, "geometry": { "type": "Point", "coordinates": [ 121.5866, 25.0439 ] } },
{ "type": "Feature", "properties": { "main_type": "社區服務、NPO", "sub_type": "「咱ㄟ社區」服務據點", "name": "「咱ㄟ社區」久如社區據點", "address": "臺北市南港區研究院路二段208號" }, "geometry": { "type": "Point", "coordinates": [ 121.6171, 25.0367 ] } },
{ "type": "Feature", "properties": { "main_type": "社區服務、NPO", "sub_type": "「咱ㄟ社區」服務據點", "name": "「咱ㄟ社區」華江社區據點", "address": "臺北市萬華區華江里長順街14巷1弄2號" }, "geometry": { "type": "Point", "coordinates": [ 121.4897, 25.0313 ] } },
{ "type": "Feature", "properties": { "main_type": "社區服務、NPO", "sub_type": "「咱ㄟ社區」服務據點", "name": "「咱ㄟ社區」保德社區據點", "address": "臺北市萬華區東園街154巷9弄2號" }, "geometry": { "type": "Point", "coordinates": [ 121.4971, 25.0228 ] } },
{ "type": "Feature", "properties": { "main_type": "社區服務、NPO", "sub_type": "「咱ㄟ社區」服務據點", "name": "「咱ㄟ社區」孝德社區據點", "address": "臺北市萬華區德昌街185巷68號" }, "geometry": { "type": "Point", "coordinates": [ 121.493, 25.0224 ] } },
{ "type": "Feature", "properties": { "main_type": "社區服務、NPO", "sub_type": "「咱ㄟ社區」服務據點", "name": "「咱ㄟ社區」馬場町社區據點", "address": "臺北市萬華區水源路195號4樓之4 " }, "geometry": { "type": "Point", "coordinates": [ 121.5092, 25.0232 ] } },
{ "type": "Feature", "properties": { "main_type": "社區服務、NPO", "sub_type": "「咱ㄟ社區」服務據點", "name": "「咱ㄟ社區」青年社區據點", "address": "臺北市萬華區新和里中華路二段416巷11之2號" }, "geometry": { "type": "Point", "coordinates": [ 121.5042, 25.0266 ] } },
{ "type": "Feature", "properties": { "main_type": "社區服務、NPO", "sub_type": "「咱ㄟ社區」服務據點", "name": "「咱ㄟ社區」幸福永和社區據點", "address": "臺北市北投區永和里行義路96巷25號3樓" }, "geometry": { "type": "Point", "coordinates": [ 121.529, 25.1273 ] } },
{ "type": "Feature", "properties": { "main_type": "社區服務、NPO", "sub_type": "「咱ㄟ社區」服務據點", "name": "「咱ㄟ社區」忠駝社區據點", "address": "臺北市信義區西村里基隆路一段364巷24號7樓" }, "geometry": { "type": "Point", "coordinates": [ 121.559, 25.0349 ] } },
{ "type": "Feature", "properties": { "main_type": "社區服務、NPO", "sub_type": "「咱ㄟ社區」服務據點", "name": "「咱ㄟ社區」我愛石牌社區據點", "address": "臺北市北投區石牌里明德路89號4樓" }, "geometry": { "type": "Point", "coordinates": [ 121.5188, 25.109 ] } },
{ "type": "Feature", "properties": { "main_type": "社區服務、NPO", "sub_type": "「咱ㄟ社區」服務據點", "name": "「咱ㄟ社區」新忠社區據點", "address": "臺北市萬華區新忠里西藏路125巷15號3樓" }, "geometry": { "type": "Point", "coordinates": [ 121.5025, 25.0282 ] } },
{ "type": "Feature", "properties": { "main_type": "社區服務、NPO", "sub_type": "「咱ㄟ社區」服務據點", "name": "「咱ㄟ社區」挹翠社區據點", "address": "臺北市信義區六合里紫雲街23號1樓" }, "geometry": { "type": "Point", "coordinates": [ 121.5744, 25.0186 ] } },
{ "type": "Feature", "properties": { "main_type": "社區服務、NPO", "sub_type": "「咱ㄟ社區」服務據點", "name": "「咱ㄟ社區」松友社區據點", "address": "臺北市信義區松友里信義路六段76巷2弄22號" }, "geometry": { "type": "Point", "coordinates": [ 121.5761, 25.0344 ] } },
{ "type": "Feature", "properties": { "main_type": "社區服務、NPO", "sub_type": "「咱ㄟ社區」服務據點", "name": "「咱ㄟ社區」中正新城社區據點", "address": "臺北市萬華區忠貞里青年路66號4樓之3" }, "geometry": { "type": "Point", "coordinates": [ 121.5027, 25.0242 ] } },
{ "type": "Feature", "properties": { "main_type": "社區服務、NPO", "sub_type": "「咱ㄟ社區」服務據點", "name": "「咱ㄟ社區」萬大社區據點", "address": "臺北市萬華區萬大路387巷39號3樓" }, "geometry": { "type": "Point", "coordinates": [ 121.4999, 25.0217 ] } },
{ "type": "Feature", "properties": { "main_type": "社區服務、NPO", "sub_type": "「咱ㄟ社區」服務據點", "name": "「咱ㄟ社區」住安社區據點", "address": "臺北市大安區住安里信義路四段60-12號1樓" }, "geometry": { "type": "Point", "coordinates": [ 121.5456, 25.0331 ] } },
{ "type": "Feature", "properties": { "main_type": "社區服務、NPO", "sub_type": "「咱ㄟ社區」服務據點", "name": "「咱ㄟ社區」愛在大學里社區據點", "address": "臺北市大安區大學里新生南路三段68之4號" }, "geometry": { "type": "Point", "coordinates": [ 121.5337, 25.0197 ] } },
{ "type": "Feature", "properties": { "main_type": "社區服務、NPO", "sub_type": "「咱ㄟ社區」服務據點", "name": "「咱ㄟ社區」芝山岩社區據點", "address": "臺北市士林區雨聲街8巷1-1號2樓" }, "geometry": { "type": "Point", "coordinates": [ 121.5295, 25.1015 ] } },
{ "type": "Feature", "properties": { "main_type": "社區服務、NPO", "sub_type": "「咱ㄟ社區」服務據點", "name": "「咱ㄟ社區」康福社區據點", "address": "臺北市士林區承德路四段40巷73號2樓" }, "geometry": { "type": "Point", "coordinates": [ 121.5211, 25.0815 ] } },
{ "type": "Feature", "properties": { "main_type": "社區服務、NPO", "sub_type": "「咱ㄟ社區」服務據點", "name": "「咱ㄟ社區」德行繽紛社區據點", "address": "臺北市士林區德行里福國路58號1樓" }, "geometry": { "type": "Point", "coordinates": [ 121.5234, 25.1022 ] } },
{ "type": "Feature", "properties": { "main_type": "社區服務、NPO", "sub_type": "「咱ㄟ社區」服務據點", "name": "「咱ㄟ社區」紫雲社區據點", "address": "臺北市內湖區紫雲里康寧路一段206號" }, "geometry": { "type": "Point", "coordinates": [ 121.5954, 25.0785 ] } },
{ "type": "Feature", "properties": { "main_type": "社區服務、NPO", "sub_type": "「咱ㄟ社區」服務據點", "name": "「咱ㄟ社區」大湖居安社區據點", "address": "臺北市內湖區大湖里大湖山莊街219巷29號" }, "geometry": { "type": "Point", "coordinates": [ 121.5998, 25.089 ] } },
{ "type": "Feature", "properties": { "main_type": "社區服務、NPO", "sub_type": "「咱ㄟ社區」服務據點", "name": "「咱ㄟ社區」萬和社區據點", "address": "臺北市文山區溪洲街12號5樓之10" }, "geometry": { "type": "Point", "coordinates": [ 121.5347, 25.0064 ] } },
{ "type": "Feature", "properties": { "main_type": "社區服務、NPO", "sub_type": "「咱ㄟ社區」服務據點", "name": "「咱ㄟ社區」德芳社區據點", "address": "臺北市文山區興邦里興隆路二段153巷6弄5號" }, "geometry": { "type": "Point", "coordinates": [ 121.5481, 25.0013 ] } },
{ "type": "Feature", "properties": { "main_type": "社區服務、NPO", "sub_type": "「咱ㄟ社區」服務據點", "name": "「咱ㄟ社區」中央社區據點", "address": "臺北市北投區中央里光明路56號1樓" }, "geometry": { "type": "Point", "coordinates": [ 121.4998, 25.1327 ] } },
{ "type": "Feature", "properties": { "main_type": "社區服務、NPO", "sub_type": "「咱ㄟ社區」服務據點", "name": "「咱ㄟ社區」富洲社區據點", "address": "臺北市士林區延平北路八段86號" }, "geometry": { "type": "Point", "coordinates": [ 121.4844, 25.1058 ] } },
{ "type": "Feature", "properties": { "main_type": "社區服務、NPO", "sub_type": "「咱ㄟ社區」服務據點", "name": "「咱ㄟ社區」福佳社區據點", "address": "臺北市士林區美崙街49巷19號1樓" }, "geometry": { "type": "Point", "coordinates": [ 121.522, 25.0967 ] } },
{ "type": "Feature", "properties": { "main_type": "社區服務、NPO", "sub_type": "「咱ㄟ社區」服務據點", "name": "「咱ㄟ社區」溪山社區據點", "address": "臺北市士林區至善路三段87號" }, "geometry": { "type": "Point", "coordinates": [ 121.567, 25.1136 ] } },
{ "type": "Feature", "properties": { "main_type": "社區服務、NPO", "sub_type": "「咱ㄟ社區」服務據點", "name": "「咱ㄟ社區」幸福名山社區據點", "address": "臺北市士林區雨聲街53巷6號7樓" }, "geometry": { "type": "Point", "coordinates": [ 121.5283, 25.1026 ] } },
{ "type": "Feature", "properties": { "main_type": "社區服務、NPO", "sub_type": "「咱ㄟ社區」服務據點", "name": "「咱ㄟ社區」慶安社區據點", "address": "臺北市大同區重慶北路三段383巷3號4樓" }, "geometry": { "type": "Point", "coordinates": [ 121.5143, 25.076 ] } },
{ "type": "Feature", "properties": { "main_type": "社區服務、NPO", "sub_type": "「咱ㄟ社區」服務據點", "name": "「咱ㄟ社區」學府社區據點", "address": "臺北市大安區學府里羅斯福路四段119巷68弄15號" }, "geometry": { "type": "Point", "coordinates": [ 121.5397, 25.0094 ] } },
{ "type": "Feature", "properties": { "main_type": "社區服務、NPO", "sub_type": "「咱ㄟ社區」服務據點", "name": "「咱ㄟ社區」岩山社區據點", "address": "臺北市士林區岩山里芝玉路一段197巷1號" }, "geometry": { "type": "Point", "coordinates": [ 121.5334, 25.1076 ] } },
{ "type": "Feature", "properties": { "main_type": "社區服務、NPO", "sub_type": "「咱ㄟ社區」服務據點", "name": "「咱ㄟ社區」明勝社區據點", "address": "臺北市士林區明勝里承德路四段12巷57號3樓" }, "geometry": { "type": "Point", "coordinates": [ 121.5196, 25.081 ] } },
{ "type": "Feature", "properties": { "main_type": "社區服務、NPO", "sub_type": "「咱ㄟ社區」服務據點", "name": "「咱ㄟ社區」灣仔社區據點", "address": "臺北市內湖區民權東路六段180巷72弄6號10樓之1" }, "geometry": { "type": "Point", "coordinates": [ 121.5921, 25.0661 ] } },
{ "type": "Feature", "properties": { "main_type": "社區服務、NPO", "sub_type": "「咱ㄟ社區」服務據點", "name": "「咱ㄟ社區」聯成社區據點", "address": "臺北市南港區聯成里東新街77巷29號1樓" }, "geometry": { "type": "Point", "coordinates": [ 121.5883, 25.0477 ] } },
{ "type": "Feature", "properties": { "main_type": "社區服務、NPO", "sub_type": "「咱ㄟ社區」服務據點", "name": "「咱ㄟ社區」朱厝崙社區據點", "address": "臺北市中山區龍江路12號" }, "geometry": { "type": "Point", "coordinates": [ 121.5403, 25.0477 ] } },
{ "type": "Feature", "properties": { "main_type": "社區服務、NPO", "sub_type": "「咱ㄟ社區」服務據點", "name": "「咱ㄟ社區」新力行社區據點", "address": "臺北市中山區長安東路二段163-1號" }, "geometry": { "type": "Point", "coordinates": [ 121.5402, 25.0484 ] } },
{ "type": "Feature", "properties": { "main_type": "社區服務、NPO", "sub_type": "「咱ㄟ社區」服務據點", "name": "「咱ㄟ社區」中原社區據點", "address": "臺北市中山區新生北路二段77巷1-1號2樓" }, "geometry": { "type": "Point", "coordinates": [ 121.5281, 25.0569 ] } },
{ "type": "Feature", "properties": { "main_type": "社區服務、NPO", "sub_type": "「咱ㄟ社區」服務據點", "name": "「咱ㄟ社區」泰和社區據點", "address": "臺北市信義區泰和里松仁路308巷60號" }, "geometry": { "type": "Point", "coordinates": [ 121.5701, 25.0213 ] } },
{ "type": "Feature", "properties": { "main_type": "社區服務、NPO", "sub_type": "「咱ㄟ社區」服務據點", "name": "「咱ㄟ社區」大道社區據點", "address": "臺北市信義區大道里忠孝東路五段790巷23弄12號2樓" }, "geometry": { "type": "Point", "coordinates": [ 121.5828, 25.0428 ] } },
{ "type": "Feature", "properties": { "main_type": "社區服務、NPO", "sub_type": "「咱ㄟ社區」服務據點", "name": "「咱ㄟ社區」安康社區據點", "address": "臺北市信義區安康里虎林街232巷63號" }, "geometry": { "type": "Point", "coordinates": [ 121.576, 25.0357 ] } },
{ "type": "Feature", "properties": { "main_type": "社區服務、NPO", "sub_type": "「咱ㄟ社區」服務據點", "name": "「咱ㄟ社區」國慶社區據點", "address": "臺北市大同區重慶北路三段136巷20號" }, "geometry": { "type": "Point", "coordinates": [ 121.5129, 25.0677 ] } },
{ "type": "Feature", "properties": { "main_type": "社區服務、NPO", "sub_type": "「咱ㄟ社區」服務據點", "name": "「咱ㄟ社區」淡水河邊社區據點", "address": "臺北市大同區延平北路三段124號" }, "geometry": { "type": "Point", "coordinates": [ 121.5108, 25.0676 ] } },
{ "type": "Feature", "properties": { "main_type": "社區服務、NPO", "sub_type": "「咱ㄟ社區」服務據點", "name": "「咱ㄟ社區」林泉社區據點", "address": "臺北市北投區林泉里中心街27巷17號1樓" }, "geometry": { "type": "Point", "coordinates": [ 121.5104, 25.1383 ] } },
{ "type": "Feature", "properties": { "main_type": "社區服務、NPO", "sub_type": "「咱ㄟ社區」服務據點", "name": "「咱ㄟ社區」硫磺谷社區據點", "address": "臺北市北投區豐年里中央北路二段17號4樓" }, "geometry": { "type": "Point", "coordinates": [ 121.4961, 25.1364 ] } },
{ "type": "Feature", "properties": { "main_type": "社區服務、NPO", "sub_type": "「咱ㄟ社區」服務據點", "name": "「咱ㄟ社區」振華社區據點", "address": "臺北市北投區振華里裕民一路40巷29號3樓" }, "geometry": { "type": "Point", "coordinates": [ 121.5178, 25.1155 ] } },
{ "type": "Feature", "properties": { "main_type": "社區服務、NPO", "sub_type": "「咱ㄟ社區」服務據點", "name": "「咱ㄟ社區」永寬社區據點", "address": "臺北市中正區永昌里寧波西街181巷-8號1樓" }, "geometry": { "type": "Point", "coordinates": [ 121.5104, 25.0266 ] } },
{ "type": "Feature", "properties": { "main_type": "社區服務、NPO", "sub_type": "NPO培力基地", "name": "台北NPO聚落", "address": "臺北市中正區龍光里13鄰重慶南路三段2號" }, "geometry": { "type": "Point", "coordinates": [ 121.5152, 25.0296 ] } },
{ "type": "Feature", "properties": { "main_type": "社區服務、NPO", "sub_type": "志願服務推廣中心", "name": "臺北市志願服務推廣中心", "address": "臺北市信義區信義路五段5段15號5樓" }, "geometry": { "type": "Point", "coordinates": [ 121.5669, 25.0331 ] } },
{ "type": "Feature", "properties": { "main_type": "保護性服務", "sub_type": "男士成長暨家庭服務中心", "name": "臺北市男士成長暨家庭服務中心-城男舊事心驛站", "address": "臺北市松山區敦化北路199巷5號3樓" }, "geometry": { "type": "Point", "coordinates": [ 121.5515, 25.057 ] } },
{ "type": "Feature", "properties": { "main_type": "保護性服務", "sub_type": "親子會面中心", "name": "同心園臺北市親子會面中心", "address": "臺北市中正區新生南路一段54巷5弄2號" }, "geometry": { "type": "Point", "coordinates": [ 121.5322, 25.0414 ] } },
{ "type": "Feature", "properties": { "main_type": "保護性服務", "sub_type": "家庭暴力暨性侵害防治中心-分區辦公室", "name": "分區辦公室-台北市婦女救援基金會/目睹家暴兒少輔導方案", "address": "臺北市士林區忠誠路二段53巷7號8樓" }, "geometry": { "type": "Point", "coordinates": [ 121.5324, 25.1114 ] } },
{ "type": "Feature", "properties": { "main_type": "保護性服務", "sub_type": "家庭暴力暨性侵害防治中心-分區辦公室", "name": "分區辦公室-財團法人天主教善牧社會福利基金會(兒童少年保護及監護個案家庭處遇服務方案)", "address": "臺北市士林區忠誠路二段53巷7號" }, "geometry": { "type": "Point", "coordinates": [ 121.5324, 25.1114 ] } },
{ "type": "Feature", "properties": { "main_type": "保護性服務", "sub_type": "家庭暴力暨性侵害防治中心-分區辦公室", "name": "分區辦公室-臺北市政府駐地方法院處理家庭暴力暨家事事件聯合服務中心", "address": "臺北市士林區忠誠路二段53巷7號" }, "geometry": { "type": "Point", "coordinates": [ 121.5324, 25.1114 ] } }
]
}
